station_id,station_name,county,lat,long,station_install_date,capa,rent_type,dong,bus_min_dist,num_bus_within_150m,subway_500m,culture_500m,school_500m,market_500m,tour_500m
301,경복궁역 7번출구 앞,종로구,37.575794,126.971451,10/7/2015,16,LCD,사직동,6.227947978,6,1,27,1,0,5
302,경복궁역 4번출구 뒤,종로구,37.575947,126.97406,10/7/2015,12,LCD,사직동,177.1225478,0,1,40,0,0,6
303,광화문역 1번출구 앞,종로구,37.57177,126.974663,10/7/2015,8,LCD,사직동,158.5140829,0,2,47,1,0,4
304,광화문역 2번출구 앞,종로구,37.572113,126.977577,1/26/2021,7,QR,사직동,32.82860127,6,1,44,1,0,1
305,종로구청 옆,종로구,37.572582,126.978355,10/7/2015,16,LCD,종로1.2.3.4가동,93.44266461,2,2,51,0,0,2
306,광화문역 7번출구 앞,종로구,37.570808,126.976433,10/7/2015,19,LCD,종로1.2.3.4가동,35.64074455,6,1,50,1,0,5
307,서울역사박물관 앞,종로구,37.57,126.9711,10/7/2015,11,LCD,사직동,13.30718833,4,0,44,4,0,5
308,광화문 S타워 앞,종로구,37.569969,126.973938,1/26/2021,20,QR,사직동,40.80796615,3,1,66,2,0,8
309,광화문역 6번출구 옆,종로구,37.569889,126.976456,10/7/2015,13,LCD,사직동,8.002709898,9,1,52,1,0,7
314,국립현대미술관,종로구,37.579708,126.980858,10/7/2015,10,LCD,사직동,79.11587804,3,0,51,3,0,14
316,종각역 1번출구 앞,종로구,37.570396,126.981789,10/7/2015,12,LCD,삼청동,39.76013682,4,3,57,0,0,10
326,안국역 5번출구 앞,종로구,37.576241,126.98616,10/7/2015,19,LCD,종로1.2.3.4가동,55.94813689,7,1,109,6,0,22
327,낙원상가 옆,종로구,37.573357,126.987465,10/7/2015,10,LCD,종로1.2.3.4가동,38.82262262,2,3,97,3,0,17
328,탑골공원 앞,종로구,37.570396,126.98819,10/7/2015,11,LCD,종로1.2.3.4가동,62.27077687,5,4,60,0,0,19
329,청계2가 사거리 옆,종로구,37.568344,126.987892,10/7/2015,8,LCD,종로1.2.3.4가동,15.29048505,4,4,37,1,0,12
334,종로3가역 2번출구 뒤,종로구,37.570599,126.991791,10/7/2015,10,LCD,종로1.2.3.4가동,62.97654926,3,5,32,0,0,11
335,종로3가역 15번출구 앞,종로구,37.570198,126.991257,10/7/2015,10,LCD,종로1.2.3.4가동,25.59074678,4,5,32,0,0,13
337,창경궁 입구,종로구,37.578979,126.996475,10/7/2015,5,LCD,종로1.2.3.4가동,20.76437063,4,0,16,4,0,24
338,세운스퀘어 앞,종로구,37.570957,126.997124,10/7/2015,18,LCD,종로1.2.3.4가동,63.45216994,2,5,17,0,0,5
339,종로4가 사거리,종로구,37.571068,126.998192,10/7/2015,10,LCD,종로1.2.3.4가동,67.5927217,5,3,20,1,0,5
340,혜화동 로터리,종로구,37.585629,127.000679,10/7/2015,8,LCD,종로1.2.3.4가동,15.62618802,5,1,160,5,0,7
341,혜화역 3번출구 뒤,종로구,37.58157,127.001785,10/7/2015,10,LCD,혜화동,46.83509287,3,1,206,8,0,6
342,대학로 마로니에공원,종로구,37.579784,127.002533,10/7/2015,15,LCD,혜화동,130.0175297,1,1,192,7,0,7
343,예일빌딩(율곡로) 앞,종로구,37.575432,127.004982,1/8/2021,6,QR,이화동,62.93931739,1,0,37,6,0,5
344,성균관대 E하우스 앞,종로구,37.574036,127.006721,10/7/2015,10,LCD,종로5.6가동,39.04303478,2,2,27,1,0,10
345,서울보증보험본사 앞,종로구,37.573307,127.00071,10/7/2015,15,LCD,종로5.6가동,135.2125691,2,1,23,3,0,4
348,독립문역 사거리,종로구,37.572029,126.960785,6/1/2016,14,LCD,종로5.6가동,45.78176978,9,1,8,6,0,2
349,사직동주민센터,종로구,37.576332,126.96859,6/1/2016,7,LCD,교남동,30.3404737,4,1,21,3,0,6
351,청운초교 앞 삼거리,종로구,37.585079,126.970619,6/1/2016,8,LCD,사직동,37.65424855,2,0,9,5,0,7
352,중앙고입구 삼거리,종로구,37.583416,126.985237,6/1/2016,15,LCD,청운효자동,49.80463459,4,0,51,4,0,7
353,재동초교 앞 삼거리,종로구,37.579388,126.984947,6/1/2016,8,LCD,가회동,54.81703652,5,1,71,6,0,18
354,포르투갈 대사관 앞,종로구,37.579155,126.98896,6/1/2016,10,LCD,가회동,89.02226993,1,1,51,5,0,34
355,서울사대부속초교 앞,종로구,37.576508,127.002457,6/1/2016,15,LCD,가회동,39.60010355,6,0,56,6,0,3
356,KT혜화지사 앞,종로구,37.577145,127.00206,6/1/2016,15,LCD,이화동,22.35883796,6,0,75,8,0,4
358,성대입구 사거리,종로구,37.5825,126.998535,6/1/2016,13,LCD,이화동,25.66546857,4,1,162,4,0,18
359,원남동사거리,종로구,37.576061,126.997681,6/1/2016,8,LCD,혜화동,24.6804695,4,0,13,4,0,8
361,동묘앞역 1번출구 뒤,종로구,37.573242,127.015907,6/1/2016,10,LCD,종로1.2.3.4가동,99.64517336,3,3,2,2,0,9
362,청계8가 사거리,종로구,37.572224,127.022705,6/1/2016,10,LCD,숭인1동,12.65517992,3,3,3,0,0,1
363,신설동역 11번출구 뒤,종로구,37.57576,127.022835,6/1/2016,10,LCD,숭인2동,19.40526091,4,3,5,3,0,1
364,창신역 1번출구 앞,종로구,37.579334,127.015083,6/1/2016,8,LCD,숭인2동,74.83574742,5,1,1,6,0,3
367,독립문역 3-1번출구,종로구,37.573849,126.958694,6/1/2016,8,LCD,창신3동,89.01460876,4,1,7,3,0,2
368,SK 서린빌딩 앞,종로구,37.569248,126.980537,6/1/2016,12,LCD,무악동,23.72788538,4,3,35,0,0,5
369,광화문 시민열린마당,종로구,37.575493,126.9785,6/1/2016,20,LCD,종로1.2.3.4가동,23.71627156,1,2,55,1,0,8
385,종각역 5번출구,종로구,37.569836,126.982658,7/6/2016,10,LCD,종로1.2.3.4가동,54.8850497,2,2,58,0,0,10
388,동성중학교 앞,종로구,37.585735,127.00161,9/2/2016,10,LCD,종로1.2.3.4가동,57.3352475,5,2,166,4,0,4
393,동대문역 8번 출구,종로구,37.570141,127.009377,1/26/2018,10,LCD,혜화동,19.81384722,3,3,15,0,0,14
394,경희궁 자이 3단지,종로구,37.56749,126.965919,10/6/2020,15,QR,종로5.6가동,61.19324214,6,1,27,10,0,3
395,경희궁 자이 2단지,종로구,37.568855,126.964561,1/26/2018,8,LCD,교남동,44.09881238,5,1,25,7,0,3
397,종묘공영주차장 건너편,종로구,37.57048,126.996635,4/30/2018,13,LCD,교남동,22.59793804,3,5,19,0,0,6
446,상명대입구,종로구,37.600128,126.957832,8/1/2017,10,LCD,종로1.2.3.4가동,48.61192136,9,0,8,5,0,1
447,신영동삼거리,종로구,37.603992,126.961945,10/29/2020,6,QR,부암동,49.4404787,5,0,6,1,0,1
449,일성아파트,종로구,37.608719,126.972862,8/1/2017,10,LCD,부암동,13.14051745,3,0,12,1,0,0
450,효자동 삼거리,종로구,37.583603,126.972549,9/7/2017,20,LCD,평창동,147.853863,1,0,15,3,0,10
451,청와대앞길,종로구,37.583515,126.979668,9/7/2017,13,LCD,청운효자동,214.3994853,0,0,37,0,0,7
452,동대문 종합시장 버스정류장,종로구,37.571239,127.00441,10/23/2018,13,LCD,삼청동,88.97238441,3,2,17,1,0,9
453,종로오가 지하쇼핑센터 14번출구,종로구,37.57114,127.000671,8/31/2018,10,LCD,종로5.6가동,77.27406144,5,2,15,1,0,6
454,종로2가 버스정류장 (종각방향),종로구,37.570358,126.986382,8/31/2018,13,LCD,종로5.6가동,16.33555534,7,2,76,0,0,17
455,삼익한의원,종로구,37.570961,127.006058,8/30/2018,8,LCD,종로1.2.3.4가동,25.00968179,2,3,14,1,0,10
456,숭인2동 주민센터 입구 (이강3대냉면),종로구,37.574471,127.019829,8/30/2018,10,LCD,종로5.6가동,28.8704551,3,5,4,0,0,3
457,종로꽃시장 입구 옆,종로구,37.57132,127.00721,8/30/2018,10,LCD,숭인2동,95.7572781,4,2,9,1,0,11
458,광화문역 5번출구,종로구,37.569939,126.977539,8/31/2018,21,LCD,종로5.6가동,57.28331271,5,2,52,1,0,5
461,서울지방경찰청,종로구,37.574364,126.972366,10/29/2018,10,LCD,종로1.2.3.4가동,172.2594663,0,2,42,0,0,2
462,신영동삼거리(북악터널방향),종로구,37.603512,126.962067,6/20/2019,15,LCD,사직동,96.81782125,3,0,6,1,0,1
464,삼청동 골목,종로구,37.58419,126.981697,8/16/2019,10,LCD,부암동,20.27975861,2,0,47,1,0,7
465,삼청공원 앞,종로구,37.587605,126.983597,11/20/2019,5,LCD,삼청동,164.7284252,0,0,19,2,0,3
3401,창신두산아파트,종로구,37.573761,127.013939,6/11/2020,10,QR,삼청동,121.7769858,2,3,4,1,0,10
3402,이화공영주차장,종로구,37.576607,127.00557,4/19/2020,10,QR,창신1동,182.0735046,0,0,54,6,0,5
3403,서울특별시 교육청,종로구,37.569508,126.967011,2/26/2020,10,QR,이화동,33.76239989,2,1,35,5,0,4
3404,서울특별시 중부교육지원청,종로구,37.571854,127.002358,2/3/2020,15,QR,사직동,53.87025643,5,1,13,1,0,7
3405,파크팰리스,종로구,37.574551,126.970551,2/11/2020,12,QR,종로5.6가동,150.0910746,0,1,22,1,0,4
3406,세종로공원,종로구,37.574059,126.9758,5/8/2020,20,QR,사직동,94.9428955,1,2,41,0,0,6
3407,안국동사거리(신),종로구,37.575806,126.983391,2/10/2020,15,QR,사직동,37.23207263,6,1,90,6,0,14
3408,종로타워빌딩,종로구,37.570511,126.983368,2/10/2020,13,QR,삼청동,121.0413499,2,1,77,0,0,14
3410,종로3가역 8번출구,종로구,37.572037,126.991844,2/11/2020,10,QR,종로1.2.3.4가동,111.3486624,1,3,37,1,0,11
3411,종묘,종로구,37.570702,126.994812,2/10/2020,10,QR,종로1.2.3.4가동,23.11779406,5,4,16,0,0,7
3412,세운상가,종로구,37.570313,126.994545,2/11/2020,15,QR,종로1.2.3.4가동,26.64507463,5,6,18,0,0,8
3413,종로플레이스,종로구,37.5732,126.997963,2/4/2020,15,QR,종로1.2.3.4가동,81.09999072,1,1,19,4,0,5
3414,종로5가역 4번출구,종로구,37.571175,127.002228,2/11/2020,10,QR,종로1.2.3.4가동,29.79657967,4,1,14,1,0,7
3416,동묘앞역 6번출구,종로구,37.571533,127.015617,2/4/2020,15,QR,종로5.6가동,16.97152183,2,3,2,2,0,8
3417,창신3동주민센터,종로구,37.577724,127.015251,2/3/2020,12,QR,창신1동,43.93145308,4,1,2,4,0,4
3418,창신역2번 출구,종로구,37.579987,127.01506,2/3/2020,10,QR,창신3동,58.44759965,4,1,1,7,0,3
3419,국립어린이과학관,종로구,37.581947,126.997368,2/10/2020,15,QR,창신3동,117.6987874,1,1,97,3,0,27
3420,성균관대입구사거리(맥도날드),종로구,37.583275,126.998856,2/4/2020,10,QR,혜화동,0.950416476,5,1,175,5,0,10
3421,혜화역 1번출구,종로구,37.583855,127.001854,2/4/2020,10,QR,혜화동,45.2659731,4,1,208,6,0,5
3422,성균관대 정문,종로구,37.584797,126.997131,2/4/2020,20,QR,혜화동,27.16578922,1,0,84,4,0,14
3423,현대그룹(본사),종로구,37.575836,127.000694,2/4/2020,20,QR,혜화동,14.7892866,4,0,34,7,0,2
3425,광화문 풍림스페이스본 1단지앞,종로구,37.574848,126.968269,5/4/2020,15,QR,종로5.6가동,7.109089825,2,1,16,2,0,6
3426,독립문역 2번출구 뒤,종로구,37.575016,126.95755,2/11/2020,10,QR,사직동,36.49178485,3,1,5,4,0,1
3427,인왕산 아이파크 정문,종로구,37.576603,126.956749,2/13/2020,13,QR,무악동,104.1068351,4,1,4,2,0,3
3428,서울미술관,종로구,37.595127,126.963493,2/13/2020,10,QR,무악동,52.1289358,3,0,10,0,0,1
3429,AW컨벤션앞,종로구,37.59726,126.963089,2/13/2020,15,QR,부암동,48.50142056,2,0,8,0,0,2
3430,구기치안센터 앞,종로구,37.60854,126.957138,2/13/2020,10,QR,부암동,49.0715038,5,0,1,0,0,0
3431,로제우스 레포츠센터,종로구,37.607601,126.957687,2/13/2020,10,QR,평창동,36.7873795,6,0,2,0,0,0
3432,종로2가 사거리,종로구,37.569992,126.988342,2/10/2020,15,QR,평창동,42.74021939,4,5,51,0,0,17
300,정동사거리,중구,37.56805,126.969231,10/7/2015,7,LCD,종로1.2.3.4가동,56.64928681,2,1,43,5,0,4
310,청계광장 옆,중구,37.568878,126.97747,10/7/2015,13,LCD,소공동,58.04524193,8,2,53,1,0,11
311,서울광장 옆,중구,37.566612,126.97747,10/7/2015,35,LCD,명동,71.50998236,5,3,29,2,0,10
312,시청역 1번출구 뒤,중구,37.564674,126.976738,10/7/2015,7,LCD,명동,88.85585901,4,2,33,3,0,12
318,광교사거리 남측,중구,37.568527,126.982552,10/7/2015,10,LCD,소공동,94.94670104,4,2,32,0,0,7
320,을지로입구역 4번출구 앞,중구,37.566223,126.983589,10/7/2015,20,LCD,명동,155.5839028,0,2,27,1,0,9
321,KEB 하나금융그룹 명동사옥 옆,중구,37.565464,126.984138,10/7/2015,15,LCD,명동,119.6274988,1,1,27,1,0,10
322,명동성당 앞,중구,37.564476,126.986969,10/7/2015,15,LCD,명동,75.21914467,3,3,32,1,0,10
324,신세계백화점 본점 앞,중구,37.56134,126.9804,10/7/2015,10,LCD,명동,34.29647351,4,2,23,0,0,7
331,을지로2가 사거리 북측,중구,37.566383,126.987206,7/28/2020,10,QR,회현동,62.1293291,2,3,26,1,0,10
332,을지로2가 사거리 남측,중구,37.56599,126.987793,10/7/2015,5,LCD,명동,91.36691256,4,3,28,1,0,11
336,티마크 호텔 앞,중구,37.562618,126.992836,10/7/2015,10,LCD,명동,84.63862939,2,4,23,2,0,5
346,맥스타일 앞,중구,37.569183,127.00988,10/7/2015,10,LCD,필동,81.70265611,3,4,17,4,0,15
347,동대문역사문화공원역 9번출구 앞,중구,37.565331,127.007843,10/7/2015,18,LCD,광희동,38.74215124,7,3,17,3,0,6
370,시청역(2호선) 9번출구 뒤,중구,37.563229,126.974838,6/15/2016,26,LCD,광희동,5.002116943,6,2,25,2,0,11
371,동대입구역 6번출구 뒤,중구,37.558872,127.005539,6/15/2016,10,LCD,소공동,64.0604676,2,1,9,2,0,1
372,약수역 3번출구 뒤,중구,37.554295,127.0112,6/15/2016,10,LCD,장충동,119.7260726,3,2,2,2,0,0
373,청구 어린이공원,중구,37.555859,127.013855,6/15/2016,8,LCD,약수동,218.7844276,0,3,1,4,0,0
374,청구역 2번출구 앞,중구,37.560474,127.014076,6/15/2016,10,LCD,청구동,61.82077461,2,2,1,3,0,1
375,다산 어린이공원,중구,37.563717,127.018425,6/15/2016,8,LCD,동화동,218.4133779,0,3,8,4,0,2
378,청계7가 사거리,중구,37.569805,127.016953,6/15/2016,10,LCD,신당5동,143.3394421,1,3,7,2,0,7
379,서울역9번출구,중구,37.556,126.973358,6/15/2016,7,LCD,신당동,61.27761857,6,4,8,0,0,2
380,CJ제일제당 앞,중구,37.563866,127.002747,6/15/2016,8,LCD,회현동,61.36879734,3,2,13,1,0,4
381,장충체육관,중구,37.558533,127.006989,6/15/2016,10,LCD,광희동,70.3989208,4,1,9,1,0,1
382,약수역 10번출구 앞,중구,37.555199,127.010048,6/15/2016,7,LCD,장충동,130.311457,5,2,3,3,0,1
383,신당역 12번 출구 뒤,중구,37.565849,127.016403,6/15/2016,17,LCD,다산동,173.4071779,0,2,9,6,0,3
384,종로학원본원,중구,37.55978,126.968506,6/15/2016,10,LCD,신당동,73.98044532,3,3,11,2,0,3
387,훈련원공원주차장 앞,중구,37.566994,127.003464,7/6/2016,10,LCD,중림동,49.37466188,2,4,12,0,0,9
389,을지로4가역 1번출구,중구,37.56673,126.996605,8/3/2017,10,LCD,을지로동,35.3820537,2,4,25,1,0,5
390,충무로역 1번출구,중구,37.56139,126.995354,8/3/2017,10,LCD,을지로동,40.80929424,3,2,17,1,0,4
391,정동길입구,중구,37.565437,126.973305,9/4/2017,8,LCD,필동,249.9354643,0,2,43,5,0,12
398,을지로3가역 3번출구,중구,37.566559,126.992439,10/26/2018,8,LCD,소공동,10.35997555,2,4,32,2,0,9
399,서울역 센트럴 자이아파트,중구,37.554108,126.965408,10/12/2018,15,LCD,을지로동,82.02341971,2,1,4,7,0,0
428,명보사거리,중구,37.5644,126.991432,10/22/2018,10,LCD,중림동,189.0415402,0,4,30,1,0,7
429,송도병원,중구,37.549889,127.007347,10/22/2018,8,LCD,을지로동,37.9117308,2,1,3,5,0,1
430,KEB하나은행 장충동지점,중구,37.562172,127.006264,11/2/2018,8,LCD,다산동,52.66765293,1,4,10,1,0,3
431,청계천 영도교,중구,37.5709,127.019524,9/24/2020,15,QR,광희동,67.58764329,2,2,2,1,0,6
433,을지로입구역 2번출구,중구,37.566345,126.982292,12/14/2018,10,LCD,황학동,101.5379344,5,3,27,0,0,7
434,신당 래미안 버스정류장,중구,37.561489,127.023933,12/6/2018,10,LCD,명동,19.58457625,6,0,2,5,0,0
435,SK 남산빌딩,중구,37.556862,126.975616,12/6/2018,10,LCD,신당5동,100.1470216,2,4,10,1,0,2
826,서울역 서부교차로2,중구,37.555367,126.968643,8/3/2017,20,LCD,회현동,74.66318428,3,4,11,2,0,1
441,염천교사거리,중구,37.559891,126.97068,1/31/2020,15,QR,청파동,31.61188639,2,2,17,1,0,2
442,서울역 서부,중구,37.553692,126.97216,2/3/2020,20,QR,중림동,143.7029082,3,4,8,0,0,0
443,호암아트홀,중구,37.562111,126.970718,1/31/2020,9,QR,남영동,137.9406,1,1,23,4,0,3
444,서울역3번 출구,중구,37.557602,126.97258,2/3/2020,20,QR,소공동,34.57269752,6,2,15,1,0,3
445,대한상공회의소,중구,37.560291,126.974548,1/31/2020,10,QR,회현동,102.7690745,4,3,17,0,0,6
466,롯데호텔,중구,37.565842,126.979813,2/28/2020,20,QR,소공동,43.63788371,5,3,32,0,0,9
467,한국은행,중구,37.562214,126.980866,1/31/2020,16,QR,명동,96.41589864,3,4,23,0,0,6
468,웨스틴 조선호텔,중구,37.564159,126.979485,1/31/2020,10,QR,소공동,20.29222641,3,3,27,0,0,10
469,회현역 1번출구,중구,37.559231,126.980141,1/31/2020,16,QR,소공동,169.2766985,0,1,13,1,0,3
470,회현역 7번출구,중구,37.55965,126.979889,1/31/2020,20,QR,회현동,172.2128428,0,1,14,1,0,4
471,회현사거리 남측,중구,37.56036,126.982651,1/31/2020,10,QR,회현동,92.83997776,2,2,26,2,0,8
472,삼일교(시그니쳐 타워),중구,37.567871,126.988983,1/30/2020,12,QR,명동,40.09969189,3,4,33,1,0,12
473,을지로4가역 9번출구,중구,37.566051,126.997986,3/1/2020,20,QR,명동,107.7647398,3,3,22,1,0,6
474,동대문역사문화공원역 1번출구 뒤편,중구,37.566299,127.008492,1/29/2020,30,QR,을지로동,64.40472545,4,3,18,3,0,8
475,ddp패션몰,중구,37.56765,127.01181,1/29/2020,16,QR,광희동,17.37365477,1,5,21,5,0,7
476,광희문,중구,37.56443,127.009956,1/29/2020,10,QR,신당동,47.02554691,5,3,20,3,0,5
477,앰배서더 호텔 주변,중구,37.559288,127.002686,1/30/2020,10,QR,광희동,54.26037449,3,1,9,2,0,2
479,동대입구역 3번 출구,중구,37.559376,127.006027,1/30/2020,13,QR,장충동,130.6071436,4,1,9,2,0,1
480,약수역 6번 출구,중구,37.554321,127.010704,1/30/2020,8,QR,장충동,83.24807447,2,2,2,3,0,0
481,신당역 10번 출구,중구,37.567032,127.015793,1/29/2020,16,QR,약수동,142.2535364,2,2,10,5,0,5
482,예수소망교회,중구,37.55994,127.018478,1/29/2020,10,QR,신당동,12.43702668,2,2,1,7,0,2
483,남산타운아파트 버스정류장,중구,37.547585,127.006439,1/29/2020,16,QR,동화동,43.99104068,2,1,1,2,0,2
484,도동삼거리,중구,37.555767,126.977188,2/13/2020,20,QR,약수동,69.0431617,4,2,8,1,0,2
485,서울역4번출구,중구,37.557404,126.973251,2/3/2020,30,QR,회현동,57.73261834,6,4,13,0,0,3
800,목월공원 앞,용산구,37.532433,126.954742,6/29/2016,15,LCD,회현동,21.39577266,5,0,5,3,0,1
802,한강진역 2번 출구 앞,용산구,37.541153,127.002213,6/29/2016,10,LCD,원효로2동,32.34279974,4,1,19,1,0,2
803,한남초교 앞 보도육교,용산구,37.538139,127.004097,6/29/2016,10,LCD,한남동,237.6156377,0,1,24,1,0,1
805,문배어린이공원 앞,용산구,37.536758,126.970001,6/29/2016,9,LCD,한남동,30.57580056,3,3,2,2,0,2
806,전자랜드 본관 앞,용산구,37.533066,126.960732,6/29/2016,20,LCD,원효로1동,111.1640767,3,0,6,0,0,1
807,서울역 12번 출구 앞,용산구,37.552277,126.972687,6/29/2016,10,LCD,한강로동,150.2088063,0,3,8,0,0,0
808,서빙고동 금호맨션 앞,용산구,37.520504,126.989738,6/29/2016,10,LCD,남영동,32.43274464,5,1,0,2,0,0
809,한남 유수지 복개주차장,용산구,37.530167,127.007439,6/29/2016,10,LCD,서빙고동,53.75191269,4,1,4,0,0,0
810,이태원지하보도,용산구,37.53841,126.986649,6/29/2016,10,LCD,한남동,63.88891552,4,1,6,3,0,3
811,녹사평역1번출구,용산구,37.53508,126.985382,6/29/2016,20,LCD,용산2가동,5.222968754,4,1,4,1,0,1
812,용산전쟁기념관,용산구,37.53484,126.977661,6/29/2016,20,LCD,용산2가동,53.55965777,2,2,13,1,0,2
813,삼각지역 3번출구,용산구,37.533512,126.972275,6/29/2016,20,LCD,남영동,138.4576103,1,2,5,1,0,3
815,LIG강촌아파트 103동앞,용산구,37.518509,126.978798,6/29/2016,20,LCD,한강로동,43.3118876,3,0,3,3,0,2
816,신용산역 6번출구 앞,용산구,37.530148,126.968483,7/6/2016,15,LCD,이촌1동,72.15075892,2,3,12,0,0,1
817,삼각지역 4번출구 앞,용산구,37.533451,126.971733,7/6/2016,9,LCD,한강로동,179.0641644,0,2,4,1,0,3
818,숙명여대 입구 교차로,용산구,37.544895,126.969383,7/6/2016,15,LCD,한강로동,23.02049182,5,1,9,7,0,2
819,선린인터넷 고등학교,용산구,37.541653,126.970505,7/6/2016,12,LCD,청파동,73.19854476,6,2,6,6,0,3
820,청파동입구 교차로,용산구,37.549026,126.971947,7/6/2016,10,LCD,청파동,11.23262006,2,2,3,1,0,0
822,이촌1동 마을공원,용산구,37.522041,126.965523,7/6/2016,10,LCD,남영동,73.66445062,2,0,2,2,0,1
823,효창동주민센터 앞,용산구,37.54232,126.96196,7/6/2016,10,LCD,이촌1동,21.00140858,3,2,5,5,0,0
825,서빙고동 주민센터 앞,용산구,37.520336,126.994263,7/6/2016,15,LCD,효창동,45.66728913,2,0,0,2,0,0
827,국군복지단,용산구,37.541885,126.97966,11/28/2017,20,LCD,서빙고동,350.7419903,0,0,0,5,0,0
828,숙대입구역 8번,용산구,37.544079,126.972,11/28/2017,7,LCD,용산2가동,41.37947871,6,2,7,5,0,2
829,베르가모앞,용산구,37.52293,126.961693,11/28/2017,40,LCD,남영동,178.3218896,0,0,1,2,0,1
830,청암자이아파트앞,용산구,37.534424,126.94857,11/28/2017,10,LCD,한강로동,35.77948826,4,0,2,3,0,0
831,이태원관광특구입구,용산구,37.534279,126.988564,11/28/2017,15,LCD,원효로2동,120.8476879,2,1,9,1,0,3
832,이촌1동 주민센터 뒤,용산구,37.521282,126.973465,12/22/2017,15,LCD,이태원1동,121.4741571,3,2,1,3,0,1
834,효창공원앞역 3번출구 뒤,용산구,37.539009,126.96138,12/22/2017,15,LCD,이촌1동,39.09228295,5,2,4,4,0,0
835,남영역 건너편,용산구,37.541981,126.971542,12/22/2017,10,LCD,용문동,34.12061332,4,2,6,5,0,2
836,현대자동차서비스 앞,용산구,37.531422,126.9515,12/22/2017,15,LCD,남영동,190.4374942,0,0,2,2,0,0
837,한남나들목 입구,용산구,37.52906,127.006729,12/22/2017,10,LCD,원효로2동,170.8951896,0,1,3,0,0,0
838,숙대입구역 4번출구,용산구,37.54446,126.972389,12/14/2018,8,LCD,한남동,48.19098899,7,2,6,6,0,2
839,보광동 삼성리버빌아파트 앞,용산구,37.52401,127.00145,12/14/2018,10,LCD,남영동,95.84939554,1,0,2,2,0,0
840,용산 파크타워 앞,용산구,37.523651,126.970268,10/14/2018,10,LCD,보광동,10.55518691,2,2,2,2,0,1
841,신용산역 1번 출구,용산구,37.52961,126.968872,10/12/2018,15,LCD,한강로동,115.446851,2,3,12,0,0,1
843,녹사평역 광장,용산구,37.533798,126.98867,10/7/2018,10,LCD,한강로동,112.9960856,1,1,7,1,0,3
844,이촌2동 동원베네스트 아파트 앞,용산구,37.527149,126.955162,10/19/2018,11,LCD,이태원1동,65.96328558,3,0,1,0,0,0
845,용산 선인상가,용산구,37.5327,126.964378,9/9/2018,22,LCD,이촌2동,37.40272239,3,3,9,1,0,1
846,용산중학교,용산구,37.546638,126.981041,12/14/2018,15,LCD,한강로동,9.930374139,4,0,3,5,0,2
847, 국방부민원실옆,용산구,37.534523,126.977501,3/28/2020,15,QR,후암동,17.61324572,2,2,13,1,0,2
848, 삼각지12번 출구,용산구,37.535259,126.975052,3/28/2020,10,QR,한강로동,91.83472658,3,2,15,1,0,3
849, 삼각지 자이아파트,용산구,37.536079,126.973419,3/30/2020,15,QR,한강로동,66.32667802,3,2,14,1,0,2
850, KCC용산월츠타워 ,용산구,37.537399,126.968926,3/28/2020,15,QR,한강로동,65.17002377,2,3,2,3,0,1
851,효창 푸르지오 앞,용산구,37.540478,126.958115,3/28/2020,10,QR,원효로1동,35.57681947,6,2,4,3,0,0
852,청암자이APT(103동),용산구,37.534527,126.947182,3/28/2020,20,QR,효창동,55.36875481,5,0,2,1,0,0
853,용산역 맞은편,용산구,37.528568,126.965691,4/7/2020,10,QR,원효로2동,28.06497941,7,3,10,2,0,0
854,HID 유족동지회 앞,용산구,37.538727,127.001549,4/5/2020,10,QR,한강로동,222.8327789,0,1,25,1,0,1
855,이촌역5번출구 앞,용산구,37.522724,126.972771,4/7/2020,15,QR,한남동,100.6283712,2,2,1,2,0,1
857, 현대 안성타워,용산구,37.535023,126.998055,4/7/2020,15,QR,한강로동,37.94054952,5,1,25,1,0,4
858,녹사평역3번 출구,용산구,37.534409,126.986893,4/7/2020,7,QR,한남동,86.2080659,4,1,8,1,0,3
859,남산공원 야외식물원 앞,용산구,37.541885,126.995865,4/5/2020,10,QR,용산2가동,43.94173257,2,0,12,0,0,6
860,LG한강 자이아파트 앞,용산구,37.520695,126.970978,4/7/2020,15,QR,이태원2동,74.14625267,2,2,1,2,0,1
863,이촌역2번 출구,용산구,37.52177,126.977005,4/7/2020,15,QR,이촌1동,152.4971001,0,2,12,3,0,4
864,순천향대학병원(한남오거리),용산구,37.535141,127.006004,4/5/2020,10,QR,한강로동,45.8738181,5,0,21,1,0,1
865,하얏트호텔 앞,용산구,37.540794,126.997849,4/5/2020,15,QR,한남동,48.64489268,4,1,22,0,0,3
866,브라운스톤 남산아파트,용산구,37.551548,126.97686,3/30/2020,10,QR,한남동,97.29089949,2,1,6,2,0,1
867,서빙고역 광장(1번출구),용산구,37.519909,126.989235,4/7/2020,10,QR,후암동,10.28164391,3,1,1,1,0,0
868,롯데하이마트 용산점 앞,용산구,37.53722,126.965019,3/28/2020,12,QR,서빙고동,33.96485847,3,2,3,1,0,2
869,노들섬 동측 앞,용산구,37.517296,126.959145,4/3/2020,10,QR,원효로1동,12.11808959,2,0,1,0,0,1
870,노들섬 서측 앞,용산구,37.517319,126.958298,4/3/2020,10,QR,이촌1동,47.05607856,2,0,1,0,0,1
3511,응봉역 1번출구,성동구,37.55125,127.035103,11/1/2017,10,LCD,이촌2동,70.21815597,5,1,0,3,0,1
3513,상왕십리역 1번출구,성동구,37.56461,127.029198,11/1/2017,10,LCD,응봉동,40.73973276,5,1,1,4,0,0
3514,왕십리교회옆,성동구,37.566261,127.023697,11/1/2017,10,LCD,왕십리도선동,6.581934308,2,1,1,5,0,2
3515,서울숲 관리사무소,성동구,37.542816,127.042084,11/1/2017,20,LCD,왕십리도선동,72.92667685,5,1,11,1,0,8
3525,금호스포츠센터앞,성동구,37.546089,127.02507,10/24/2018,15,LCD,성수1가1동,78.1161403,4,0,0,1,0,1
3527,왕십리 자이아파트,성동구,37.56179,127.024391,10/24/2018,8,LCD,금호4가동,35.09907474,6,0,1,4,0,0
3530,왕십리자이아파트 후문(삼거리),성동구,37.560146,127.02636,10/24/2018,15,LCD,신당5동,43.56806984,3,1,0,4,0,0
3531,논골사거리(금호도서관 입구),성동구,37.554779,127.024841,10/24/2018,15,LCD,왕십리2동,50.46595143,14,1,0,2,0,1
3532,왕십리KCC스위첸아파트,성동구,37.56068,127.026779,10/24/2018,15,LCD,금호1가동,28.02455722,3,2,0,4,0,0
3538,서울숲 IT캐슬,성동구,37.550892,127.044762,10/29/2018,14,LCD,왕십리2동,82.50633248,3,1,6,2,0,3
506,금호 어울림 아파트 앞,성동구,37.549061,127.057793,10/7/2015,7,LCD,성수1가2동,78.58869646,1,0,6,0,0,0
507,성수아이에스비즈타워 앞,성동구,37.548203,127.057114,10/7/2015,7,LCD,송정동,119.6616616,2,1,6,0,0,1
508,성수아카데미타워 앞,성동구,37.545166,127.05751,10/7/2015,10,LCD,성수2가3동,140.6731649,1,1,12,0,0,3
509,이마트 버스정류소 옆,성동구,37.539654,127.052589,10/7/2015,20,LCD,성수2가3동,83.45836474,4,0,6,4,0,2
510,서울숲 남문 버스정류소 옆,성동구,37.541222,127.0438,10/7/2015,10,LCD,성수2가1동,26.55899686,4,1,7,2,0,2
511,서울숲역 4번 출구 옆,성동구,37.544582,127.044609,10/7/2015,16,LCD,성수1가1동,63.03017037,5,2,17,4,0,4
512,뚝섬역 1번 출구 옆,성동구,37.548561,127.045006,10/7/2015,15,LCD,성수1가1동,123.2942586,2,1,12,1,0,6
513,뚝섬역 5번 출구 정류소 옆,성동구,37.546307,127.049805,10/7/2015,13,LCD,성수1가2동,59.74461902,4,1,13,4,0,1
514,성수사거리 버스정류장 앞,성동구,37.54258,127.063309,10/7/2015,7,LCD,성수1가2동,70.80551714,6,0,8,1,0,4
518,청계천 박물관 앞,성동구,37.571526,127.035355,6/29/2016,20,LCD,성수2가3동,137.1031027,1,1,1,1,0,0
519,양지사거리,성동구,37.566994,127.029915,6/29/2016,20,LCD,마장동,46.96115426,5,1,1,3,0,1
520,상왕십리역 4번 출구 앞,성동구,37.563858,127.030319,6/29/2016,10,LCD,왕십리도선동,98.77621321,3,1,1,3,0,1
521,왕십리역 11번 출구 앞,성동구,37.561447,127.03492,6/29/2016,14,LCD,왕십리2동,73.21945857,2,4,6,2,0,2
522,금호역 1번출구 앞,성동구,37.548641,127.016426,6/29/2016,9,LCD,행당1동,24.15479312,11,1,0,2,0,1
523,옥수동성당 옆,성동구,37.543663,127.014061,6/29/2016,11,LCD,금호2.3가동,7.324992405,9,1,0,4,0,0
524,래미안금호하이리버 아파트 102동 옆,성동구,37.5522,127.025055,6/29/2016,10,LCD,옥수동,32.24798255,7,1,1,2,0,0
525,한양대병원사거리,성동구,37.558052,127.040352,6/29/2016,20,LCD,금호2.3가동,79.52368134,4,4,8,5,0,1
526,용답토속공원 앞,성동구,37.563511,127.056725,6/29/2016,10,LCD,사근동,70.00596408,1,0,1,2,0,1
529,장한평역 8번 출구 앞,성동구,37.561371,127.06366,6/29/2016,15,LCD,용답동,196.597272,0,1,0,1,0,0
530,청계벽산아파트 앞,성동구,37.568748,127.030403,6/29/2016,9,LCD,용답동,2.878051918,3,1,1,3,0,1
533,우리은행 금호동 지점 앞,성동구,37.548149,127.021088,6/29/2016,7,LCD,왕십리도선동,11.4097488,11,1,1,3,0,0
534,금호사거리,성동구,37.548634,127.025726,6/29/2016,20,LCD,금호4가동,40.37391114,8,0,0,1,0,1
535,응봉삼거리,성동구,37.553986,127.033592,6/29/2016,16,LCD,금호2.3가동,1.689497282,9,1,0,5,0,0
536,행당역 2번출구 앞,성동구,37.55735,127.029213,6/29/2016,8,LCD,응봉동,40.15956674,5,1,0,4,0,0
537,한양대후문역 부근,성동구,37.560356,127.041397,6/29/2016,10,LCD,행당2동,21.68699625,4,4,8,4,0,2
538,답십리역 8번출구 앞,성동구,37.56765,127.051155,6/29/2016,15,LCD,사근동,105.347568,2,2,1,1,0,2
550,서울시설공단 앞,성동구,37.57164,127.03566,1/25/2021,15,QR,용답동,108.0475151,1,1,1,1,0,0
556,달맞이공원,성동구,37.542053,127.020401,7/6/2016,20,LCD,마장동,247.5895847,0,2,0,2,0,0
557,도선동 주민센터 앞,성동구,37.567642,127.025696,7/6/2016,10,LCD,옥수동,20.75109828,5,1,1,4,0,2
558,성동광진 교육지원청 앞,성동구,37.564606,127.036522,7/6/2016,20,LCD,왕십리도선동,72.86428515,1,4,3,2,0,2
559,왕십리역 4번 출구 건너편,성동구,37.561096,127.036797,7/6/2016,10,LCD,행당1동,13.85979673,7,4,6,2,0,3
560,비전교회 앞,성동구,37.551205,127.068932,7/6/2016,8,LCD,행당1동,80.87681231,5,0,1,4,0,1
561,서울숲역 2번출구 앞,성동구,37.542816,127.04467,7/6/2016,10,LCD,송정동,13.32618116,4,1,13,3,0,3
562,군자지하보도 앞,성동구,37.559246,127.07341,7/6/2016,10,LCD,성수1가1동,140.8186905,1,0,1,0,0,0
563,성동세무서 건너편,성동구,37.547913,127.062752,7/6/2016,10,LCD,송정동,30.62244244,3,0,5,1,0,0
564,금호역 3번출구,성동구,37.547928,127.015572,7/6/2016,15,LCD,성수2가3동,56.66929466,7,1,0,3,0,1
565,옥수역 3번출구,성동구,37.541363,127.017662,7/6/2016,20,LCD,금호4가동,44.16952567,3,2,0,2,0,0
567,성수역 2번출구 앞,성동구,37.54459,127.057083,7/6/2016,15,LCD,옥수동,71.93616855,2,1,10,1,0,3
568,청계8가사거리 부근,성동구,37.571102,127.02356,7/6/2016,10,LCD,성수2가3동,33.2561576,4,1,2,0,0,2
569,응봉현대아파트 정류소,성동구,37.549583,127.030243,7/6/2016,10,LCD,왕십리도선동,17.56265756,7,1,0,2,0,1
578,성동세무서 부근,성동구,37.548286,127.062088,7/6/2016,8,LCD,응봉동,18.52312702,2,0,5,1,0,0
579,마장역 4번출구,성동구,37.565205,127.041847,7/6/2016,8,LCD,송정동,35.8942999,6,2,1,5,0,2
581,용답초등학교,성동구,37.561012,127.054237,7/6/2016,10,LCD,마장동,262.90248,0,1,1,2,0,1
582,경일중학교 앞,성동구,37.543179,127.04908,7/6/2016,10,LCD,용답동,26.38497188,4,2,13,5,0,2
583,청계천 생태교실 앞,성동구,37.56797,127.04689,7/6/2016,20,LCD,성수1가1동,115.9758921,2,2,0,2,0,1
585,성수2가1동 공영주차장 인근,성동구,37.536808,127.055489,9/2/2016,9,LCD,마장동,46.91458279,3,0,3,3,0,0
586,마장동 주민센터,성동구,37.565941,127.045395,9/2/2016,10,LCD,성수2가1동,133.925384,1,2,0,3,0,2
587,유니베라 앞,성동구,37.545418,127.052643,9/20/2016,10,LCD,마장동,87.34187794,3,1,12,2,0,4
589,성수역3번출구,성동구,37.544159,127.056656,4/19/2017,8,LCD,성수2가3동,46.2211287,2,1,11,1,0,4
594,중랑물재생센터(서울새활용플라자),성동구,37.558365,127.056908,8/28/2017,15,LCD,성수2가3동,410.1573587,0,0,1,1,0,0
3544,한양대역 3번 출구,성동구,37.554539,127.043778,4/13/2020,10,QR,용답동,93.39799332,1,1,4,3,0,0
3545,한양대역 1번출구,성동구,37.55658,127.043358,4/13/2020,10,QR,사근동,21.74979877,3,1,4,3,0,1
3547,상왕십리역 6번 출입구,성동구,37.564381,127.02887,4/14/2020,12,QR,사근동,36.07353278,4,1,1,4,0,0
3548,뚝섬역 6번출구,성동구,37.546959,127.047669,6/5/2020,10,QR,왕십리2동,99.89234349,2,2,17,4,0,3
3549,건영아파트 앞,성동구,37.555141,127.071106,5/11/2020,9,QR,성수1가2동,27.88820589,2,0,1,3,0,1
3550,금호나들목,성동구,37.544041,127.023201,4/16/2020,20,QR,송정동,70.09210356,2,0,0,1,0,0
3551,성동도로사업소,성동구,37.559799,127.056328,4/14/2020,15,QR,금호4가동,255.7957972,0,0,1,1,0,0
3552,서울숲 공영주차장앞,성동구,37.541958,127.04277,4/13/2020,10,QR,용답동,18.17607837,4,1,11,2,0,4
3553,마장역3번출구,성동구,37.565979,127.043114,4/14/2020,10,QR,성수1가1동,43.43039333,4,1,0,5,0,2
3555,양지사거리(센트라스APT 115동앞),성동구,37.566818,127.029152,4/14/2020,20,QR,마장동,25.56196306,4,1,1,3,0,1
3556,신금호파크자이APT앞,성동구,37.555313,127.019791,4/15/2020,15,QR,왕십리도선동,10.68954498,9,1,1,7,0,2
3557,서울숲리버뷰자이APT105동 앞,성동구,37.55653,127.039131,4/13/2020,8,QR,금호2.3가동,26.38839517,4,2,6,3,0,1
3558,마장동 금호어울림APT앞,성동구,37.563396,127.04187,4/14/2020,10,QR,행당1동,36.15482211,2,5,2,3,0,2
3559,성동구민종합체육센터 앞,성동구,37.54591,127.044601,4/13/2020,10,QR,마장동,31.67725424,4,2,18,3,0,4
3560,성동구 견인차량 보관소 앞,성동구,37.563709,127.05645,4/14/2020,10,QR,성수1가1동,96.2599711,1,1,1,2,0,1
3561,행당동 삼부APT후문,성동구,37.559269,127.038399,4/14/2020,10,QR,용답동,72.58264105,2,4,8,3,0,2
3500,군자역2번출구,광진구,37.557587,127.079697,11/1/2017,8,LCD,행당1동,46.71700621,1,2,3,1,0,2
3501,광진구청 앞,광진구,37.539501,127.083,11/1/2017,10,LCD,중곡1동,73.35854689,2,1,1,5,0,0
3502,중곡역 1번출구,광진구,37.565659,127.084297,11/1/2017,15,LCD,자양1동,48.38095979,3,1,0,6,0,1
3503,광진유진스웰,광진구,37.550488,127.108955,11/1/2017,20,LCD,중곡3동,6.361403789,5,0,0,1,0,2
3504,원일교회,광진구,37.538052,127.076599,11/1/2017,8,LCD,광장동,136.9376008,2,0,4,5,0,1
3505,신양초교앞 교차로,광진구,37.535221,127.068398,11/1/2017,12,LCD,자양3동,48.51855163,8,1,6,4,0,1
3506,영동대교 북단,광진구,37.537014,127.061096,11/1/2017,10,LCD,자양3동,48.46378543,6,0,4,3,0,1
3507,어린이회관,광진구,37.545952,127.078003,11/1/2017,39,LCD,자양4동,68.64000959,2,1,9,3,0,3
3508,화양사거리,광진구,37.548222,127.067879,11/1/2017,10,LCD,능동,72.05253918,2,0,2,1,0,0
3509,세종사이버대학교,광진구,37.553417,127.073196,9/24/2020,20,QR,화양동,4.026671331,2,0,5,4,0,0
3510,중곡SK아파트앞,광진구,37.568649,127.08625,3/23/2018,10,LCD,군자동,57.90758974,5,1,0,3,0,1
3516,구의아리수정수센터앞,광진구,37.543705,127.093246,11/28/2017,10,LCD,중곡4동,34.91005339,2,0,0,3,0,0
3517,용마사거리,광진구,37.562527,127.082275,11/28/2017,10,LCD,광장동,44.22307367,5,1,1,2,0,2
3518,군자역 7번출구뒤,광진구,37.556862,127.07914,11/28/2017,8,LCD,중곡1동,60.71696062,4,2,2,1,0,1
3520,광진경찰서,광진구,37.542519,127.084084,2/26/2018,10,LCD,군자동,30.62258993,5,0,0,6,0,1
3521,현대홈타운 뒷길,광진구,37.543427,127.096619,2/26/2018,10,LCD,구의1동,42.82340821,2,0,0,4,0,1
3523,건국대학교 과학관(이과대) 앞,광진구,37.541718,127.08017,4/16/2018,10,LCD,광장동,311.2260034,0,0,5,5,0,1
3524,세종대학교,광진구,37.550236,127.073822,4/9/2018,15,LCD,화양동,152.6252864,0,1,7,3,0,0
3528,광진정보도서관,광진구,37.550598,127.110512,10/29/2018,8,LCD,군자동,39.13431445,3,0,1,0,0,2
3529,어린이대공원정문,광진구,37.549789,127.075928,10/31/2018,15,LCD,광장동,11.69359927,3,1,9,3,0,3
3533,건대입구역 사거리(롯데백화점),광진구,37.539139,127.070618,10/29/2018,10,LCD,능동,15.74338427,4,2,9,2,0,4
3534,건대입구역 5번출구 뒤,광진구,37.540138,127.069283,10/29/2018,12,LCD,자양3동,128.0172185,4,2,10,1,0,4
3535,중곡사거리(국민은행),광진구,37.559158,127.087517,10/29/2018,10,LCD,자양4동,56.94993544,8,0,1,3,0,0
3536,중앙농협(자양동),광진구,37.531811,127.080742,10/29/2018,10,LCD,중곡2동,31.18901396,5,0,1,4,0,2
3537,아차산 휴먼시아 아파트 옆,광진구,37.548489,127.093758,10/29/2018,15,LCD,자양1동,52.99294204,2,0,0,1,0,1
3541,커먼그라운드,광진구,37.54504,127.089958,11/14/2018,20,LCD,구의2동,80.52714523,4,0,0,3,0,0
3542,래미안 구의파크 스위트,광진구,37.54504,127.089958,11/14/2018,17,LCD,구의2동,80.52714523,4,0,0,3,0,0
500,어린이대공원역 3번출구 앞,광진구,37.54707,127.074272,10/7/2015,10,LCD,구의2동,75.61027504,3,1,8,3,0,0
501,광진구의회 앞,광진구,37.537308,127.070351,10/7/2015,30,LCD,화양동,140.8730114,1,2,8,4,0,3
502,뚝섬유원지역 1번출구 앞,광진구,37.53186,127.067192,10/7/2015,27,LCD,자양3동,93.57447511,1,1,2,2,0,2
505,자양사거리 광진아크로텔 앞,광진구,37.53701,127.082245,10/7/2015,10,LCD,자양3동,31.45835463,2,1,2,3,0,0
515,광양중학교 앞,광진구,37.530235,127.08683,10/7/2015,10,LCD,자양1동,226.9403895,0,0,1,6,0,1
516,광진메디칼 앞,광진구,37.548405,127.069366,10/7/2015,10,LCD,자양2동,60.7707175,3,1,1,2,0,0
539,군자교교차로,광진구,37.559795,127.074203,6/29/2016,10,LCD,군자동,127.3175725,1,0,1,0,0,0
540,군자역 7번출구 베스트샵 앞,광진구,37.55603,127.078644,6/29/2016,8,LCD,중곡1동,36.02542336,5,2,2,0,0,1
542,강변역 4번출구 뒤,광진구,37.535465,127.094482,6/29/2016,19,LCD,군자동,88.04222406,7,1,4,1,0,0
543,구의공원(테크노마트 앞),광진구,37.535969,127.094673,9/2/2020,20,QR,구의3동,34.80652998,8,1,4,1,0,0
544,광남중학교,광진구,37.54073,127.102905,6/29/2016,20,LCD,구의3동,188.6736377,0,0,0,3,0,0
546,잠실대교북단 교차로,광진구,37.532478,127.085091,6/29/2016,8,LCD,광장동,53.19955691,4,0,2,6,0,2
548,자양나들목,광진구,37.52977,127.07486,6/29/2016,20,LCD,자양1동,68.09321171,2,0,2,1,0,1
549,아차산역 3번출구,광진구,37.551224,127.089706,6/29/2016,10,LCD,자양2동,39.15185271,3,1,2,4,0,0
551,구의삼성쉐르빌 앞,광진구,37.540062,127.094498,7/6/2016,10,LCD,구의2동,57.31941199,2,0,1,1,0,0
552,대림아크로리버 앞,광진구,37.536579,127.092972,7/6/2016,10,LCD,구의3동,77.18903234,7,1,4,2,0,0
553,중곡 성원APT 앞,광진구,37.571255,127.079803,7/6/2016,19,LCD,구의3동,110.6037348,4,0,1,1,0,2
555,구의3동주민센터,광진구,37.537849,127.092171,7/6/2016,9,LCD,중곡3동,156.4151073,0,1,4,1,0,0
571,어린이대공원역6번출구,광진구,37.548496,127.07476,7/6/2016,20,LCD,구의3동,152.153515,0,1,9,2,0,0
572,국립정신 건강센터 앞,광진구,37.56538,127.08651,7/6/2016,20,LCD,군자동,23.38449474,2,1,0,7,0,1
573,구의문주차장 앞,광진구,37.545231,127.084732,7/6/2016,10,LCD,중곡3동,35.78163411,3,0,1,4,0,3
574,아차산역4번출구,광진구,37.551849,127.088982,7/6/2016,40,LCD,능동,67.98162363,2,1,2,3,0,1
575,중앙농협 중곡지점,광진구,37.564293,127.086937,7/6/2016,10,LCD,능동,10.7942377,5,1,0,7,0,1
576,광나루역 3번 출구,광진구,37.54483,127.104263,7/6/2016,10,LCD,중곡4동,95.89664561,3,1,1,2,0,1
577,광진청소년수련관,광진구,37.546547,127.106133,7/6/2016,10,LCD,광장동,83.42897442,7,1,1,2,0,1
584,광진광장 교통섬,광진구,37.547829,127.072632,9/2/2016,20,LCD,광장동,114.0021294,2,1,4,3,0,0
588,뚝섬 유원지역,광진구,37.532688,127.067497,,20,QR,군자동,105.0855946,2,1,1,2,0,2
590,건국대학교 (입학정보관),광진구,37.53989,127.073364,8/30/2017,20,LCD,자양3동,197.0174154,0,2,9,3,0,3
591,건국대학교 (행정관),광진구,37.542778,127.075371,8/30/2017,5,LCD,화양동,297.0002216,0,1,6,4,0,2
592,건국대학교 학생회관,광진구,37.541912,127.077637,8/30/2017,30,LCD,화양동,399.2106267,0,0,5,5,0,1
593,자양중앙나들목,광진구,37.528587,127.077873,9/24/2020,5,QR,화양동,321.1047573,0,0,0,1,0,1
3543,세종대학교(학술정보원),광진구,37.551373,127.07444,12/16/2019,15,LCD,자양2동,195.393793,0,1,6,3,0,0
3563,구의7단지현대아파트,광진구,37.53651,127.091393,6/9/2020,5,QR,군자동,150.5583594,0,2,4,2,0,0
3564,나루마당,광진구,37.547752,127.095757,4/14/2020,20,QR,구의3동,237.8808141,0,0,0,4,0,1
3566,우성4차아파트,광진구,37.535072,127.076111,4/14/2020,10,QR,구의2동,43.65402649,2,0,2,4,0,1
3569,건대병원후문,광진구,37.539566,127.072441,5/7/2020,10,QR,자양3동,177.2606733,0,2,9,2,0,4
3570,구의역 리버비스타 오피스텔,광진구,37.538097,127.08902,4/14/2020,10,QR,화양동,20.913914,5,1,0,1,0,0
3571,화양 APT(횡단보도 옆),광진구,37.54435,127.065407,4/13/2020,15,QR,구의1동,43.45253819,3,0,4,1,0,2
3573,광나루안전체험관,광진구,37.551338,127.076714,4/13/2020,15,QR,화양동,83.63270769,1,1,7,3,0,3
3575,자양사거리 (LG 유플러스),광진구,37.536575,127.082581,4/14/2020,6,QR,능동,35.04150874,2,1,2,2,0,0
3578,중곡동 파크웨이빌딩,광진구,37.555008,127.085815,4/14/2020,9,QR,자양1동,86.17935129,3,1,3,1,0,2
3579,광진 캠퍼스시티,광진구,37.54789,127.067452,4/13/2020,20,QR,중곡2동,110.29402,4,0,2,1,0,0
3581,광진광장,광진구,37.54747,127.073967,4/16/2020,15,QR,화양동,99.0520476,2,1,8,3,0,0
3582,화양동 우체국,광진구,37.547989,127.069504,4/13/2020,14,QR,군자동,81.65311092,4,1,1,2,0,0
3586,군자역 비채온 오피스텔,광진구,37.557713,127.077271,4/14/2020,8,QR,화양동,49.59061516,2,2,2,0,0,2
600,휘경2동 주민센터,동대문구,37.589912,127.06868,6/29/2016,13,LCD,군자동,103.466137,2,0,0,2,0,0
601,용신동주민센터,동대문구,37.575947,127.037361,6/29/2016,10,LCD,휘경2동,75.16418435,3,2,3,0,0,0
602,장안동 사거리,동대문구,37.572174,127.071388,6/29/2016,10,LCD,용신동,87.50007101,7,0,1,1,0,0
604,답십리초등학교 옆 공원,동대문구,37.569656,127.055962,6/29/2016,15,LCD,장안1동,139.7163295,2,1,0,1,0,1
605,신설동역8번출구,동대문구,37.5742,127.026497,6/29/2016,8,LCD,답십리1동,73.28900491,1,3,2,2,0,1
606,휘경공고앞,동대문구,37.584625,127.07029,6/29/2016,14,LCD,용신동,17.79336007,2,0,0,6,0,1
607,신이문역 2번출구,동대문구,37.602711,127.067863,6/29/2016,10,LCD,휘경2동,20.25613785,1,1,0,1,0,0
608,전농삼성아파트,동대문구,37.58131,127.055344,6/29/2016,10,LCD,이문2동,196.5130804,0,0,1,6,0,0
609,제기2교,동대문구,37.587791,127.037361,6/29/2016,20,LCD,전농2동,50.98114061,3,1,1,3,0,1
610,동대문중 교차로,동대문구,37.573086,127.052162,6/29/2016,10,LCD,제기동,116.1485928,3,0,0,2,0,1
612,시립동부병원 앞 사거리,동대문구,37.573666,127.030815,6/29/2016,20,LCD,답십리1동,31.75486379,4,0,1,1,0,2
613,신설동역 10번출구 앞,동대문구,37.575272,127.023468,6/29/2016,10,LCD,용신동,70.0761216,5,3,4,4,0,0
614,용두동 사거리,동대문구,37.577686,127.031013,6/29/2016,20,LCD,용신동,92.01921322,2,1,2,1,0,2
615,용두동 래미안허브리츠아파트 앞,동대문구,37.576382,127.03511,6/29/2016,20,LCD,용신동,202.8492477,0,2,3,0,0,2
616,서울시립대 앞,동대문구,37.582561,127.054367,6/29/2016,20,LCD,용신동,39.95289061,4,0,1,6,0,0
617,청솔우성아파트 앞,동대문구,37.574203,127.057693,6/29/2016,20,LCD,전농2동,28.69502359,2,0,0,2,0,1
621,동대문중학교 옆,동대문구,37.574718,127.053391,7/6/2016,13,LCD,답십리2동,24.24139648,2,0,0,2,0,1
622,전농사거리 교통섬,동대문구,37.577793,127.057831,7/6/2016,15,LCD,전농1동,88.08653504,5,0,0,7,0,0
623,서울시립대 정문 앞,동대문구,37.583698,127.053856,7/6/2016,20,LCD,전농2동,38.41599383,5,0,2,6,0,0
624,전농동 동아아파트 앞,동대문구,37.574188,127.045891,7/6/2016,10,LCD,전농1동,27.93998139,2,1,0,3,0,1
625,답십리초등학교 앞(현대시장 옆),동대문구,37.568192,127.057175,7/6/2016,14,LCD,전농1동,21.19407431,2,1,1,1,0,1
626,군자교 서측 녹지대,동대문구,37.561153,127.070969,7/6/2016,10,LCD,답십리2동,297.5443892,0,0,1,0,0,0
627,장안동삼거리 교통섬,동대문구,37.578632,127.071907,7/6/2016,10,LCD,장안1동,66.74671448,7,0,0,3,0,2
628,휘봉고등학교 앞,동대문구,37.586815,127.067543,7/6/2016,15,LCD,장안2동,41.97592668,4,0,0,7,0,1
630,동대문구 보건소,동대문구,37.574852,127.040306,7/6/2016,15,LCD,휘경2동,157.585529,0,1,2,2,0,2
631,답십리역 1번출구,동대문구,37.568184,127.051277,7/6/2016,15,LCD,용신동,58.67126518,2,2,1,1,0,2
633,청량리 기업은행 앞,동대문구,37.580406,127.044823,7/6/2016,8,LCD,답십리1동,53.61545235,7,4,4,2,0,1
634,외국어대 정문 앞,동대문구,37.59602,127.05983,7/6/2016,20,LCD,청량리동,47.88222351,4,1,3,3,0,0
635,시조사 앞 (청량고정문 옆),동대문구,37.587517,127.052773,7/6/2016,12,LCD,이문1동,86.18543037,2,1,2,3,0,1
636,세종대왕기념관 교차로,동대문구,37.5909,127.042587,7/6/2016,9,LCD,청량리동,48.83984885,3,0,4,3,0,3
637,KAIST 경영대학 앞,동대문구,37.591614,127.045792,7/6/2016,10,LCD,청량리동,25.29322351,2,0,4,4,0,3
638,서울시립대 정보기술관,동대문구,37.583008,127.060974,7/6/2016,20,LCD,청량리동,549.1796219,0,0,1,9,0,3
639,서울시립대 후문,동대문구,37.585197,127.060951,7/6/2016,14,LCD,전농2동,496.416109,0,0,1,6,0,1
640,KEB하나은행 청량리역지점,동대문구,37.582455,127.044495,7/6/2016,6,LCD,전농2동,78.97646387,3,4,4,2,0,1
641,용두역 4번출구,동대문구,37.573753,127.038536,7/6/2016,10,LCD,청량리동,38.64865998,4,1,2,2,0,2
643,동대문구민체육센터 (육교아래),동대문구,37.566971,127.074417,7/6/2016,10,LCD,용신동,54.30214327,1,0,2,2,0,0
646,장한평역 1번출구 (국민은행앞),동대문구,37.561867,127.064377,11/28/2017,10,LCD,장안1동,112.9754592,2,1,0,1,0,0
647,신이문역 1번출구,동대문구,37.602798,127.067268,11/28/2017,10,LCD,장안1동,46.87972017,1,1,0,1,0,0
648,장안동위더스빌옆,동대문구,37.5667,127.062424,11/28/2017,15,LCD,이문2동,14.56278727,2,0,1,1,0,0
650,중랑교사거리,동대문구,37.591534,127.067741,11/28/2017,20,LCD,장안1동,18.72199842,5,0,1,0,0,0
652,답십리 래미안엘파인아파트 입구,동대문구,37.57653,127.065941,11/4/2018,20,LCD,휘경2동,181.5261134,0,0,0,1,0,1
654,전농동 텃골공원,동대문구,37.577621,127.052109,11/28/2017,10,LCD,전농2동,227.4913906,0,1,1,3,0,0
656,영휘원 교차로,동대문구,37.587238,127.043137,10/22/2018,10,LCD,전농1동,137.7514505,2,0,3,4,0,0
657,동대문롯데캐슬아파트 앞,동대문구,37.57576,127.04837,10/22/2018,13,LCD,청량리동,24.4921791,4,0,0,3,0,0
658,촬영소 사거리,동대문구,37.572948,127.066147,10/22/2018,10,LCD,전농1동,62.30123174,3,0,2,1,0,0
659,제기역1번출구,동대문구,37.57835,127.033386,10/22/2018,15,LCD,답십리2동,172.6800288,0,1,4,3,0,2
660,동의보감타워,동대문구,37.577999,127.037628,10/22/2018,10,LCD,제기동,15.59030694,4,2,4,1,0,1
661,경희대학교 청운관,동대문구,37.594601,127.051964,8/30/2018,10,LCD,용신동,64.99403454,1,0,4,7,0,1
663,외대앞역 4번출구,동대문구,37.594891,127.063026,12/14/2018,10,LCD,회기동,74.08366879,1,1,1,1,0,0
664,서울시립대 대학본부,동대문구,37.584129,127.057938,11/20/2019,10,LCD,휘경1동,364.5987753,0,0,1,8,0,0
665,이문동 쌍용아파트 정문,동대문구,37.599606,127.068642,4/19/2020,11,QR,전농2동,92.34703479,3,1,0,1,0,1
666,이문대성유니드아파트 앞,동대문구,37.603622,127.070831,4/21/2020,20,QR,이문2동,293.9115891,0,1,0,0,0,0
667,청량차도 육교 밑,동대문구,37.586594,127.046997,4/19/2020,7,QR,이문2동,62.85451297,3,0,0,5,0,0
668,서울축산농협(장안지점),동대문구,37.568653,127.069183,4/22/2020,10,QR,청량리동,28.63010335,3,0,3,2,0,0
669,청계신한신휴플러스앞 삼거리,동대문구,37.572048,127.044663,4/19/2020,10,QR,장안1동,33.01900584,4,1,0,4,0,2
670,삼육서울병원 버스정류장,동대문구,37.589687,127.061409,4/22/2020,9,QR,답십리1동,63.40025927,5,3,0,1,0,1
671,대광빌딩,동대문구,37.577343,127.023377,3/27/2020,10,QR,휘경2동,79.51209455,2,3,5,4,0,1
672,대광고등학교,동대문구,37.57859,127.02385,3/27/2020,17,QR,용신동,162.0090752,0,3,3,3,0,0
673,안암골벽산아파트(후문),동대문구,37.58408,127.031036,3/28/2020,10,QR,용신동,128.0053991,1,1,2,2,0,0
674,고대앞사거리 교통섬,동대문구,37.586552,127.033142,3/30/2020,15,QR,제기동,81.38462397,2,1,2,1,0,1
675,성복교회 앞 (장평교 아래),동대문구,37.572025,127.077004,4/16/2020,10,QR,제기동,114.6812864,1,0,1,1,0,2
676,FITI시험연구원 앞,동대문구,37.581432,127.035477,3/28/2020,9,QR,장안2동,217.0574788,0,1,5,2,0,2
677,청량리역 4번 5번출구 사이,동대문구,37.580151,127.045799,4/19/2020,20,QR,제기동,26.93890073,6,4,4,2,0,1
678,장안힐스테이트(아) 앞,동대문구,37.576557,127.07431,4/26/2020,15,QR,전농1동,185.4959515,0,0,0,4,0,3
679,전농SK아파트 앞,동대문구,37.577877,127.061684,4/16/2020,10,QR,장안2동,25.63659257,2,0,0,3,0,2
680,꿈마루어린이도서관 앞,동대문구,37.592384,127.057411,4/19/2020,15,QR,전농2동,53.89506722,4,3,2,3,0,2
681,서울특별시 동부교육지원청(육교),동대문구,37.579838,127.056374,4/19/2020,15,QR,이문1동,116.5169124,2,0,1,6,0,0
1401,극동늘푸른아파트,중랑구,37.614738,127.076363,4/26/2017,15,LCD,전농2동,5.342659513,8,3,1,0,0,2
1402,금란주차장 앞,중랑구,37.600071,127.102333,4/26/2017,10,LCD,묵2동,49.87966399,4,0,0,5,0,0
1403,중화빌딩 앞 (동부시장),중랑구,37.59425,127.076576,4/26/2017,15,LCD,망우본동,37.39294019,4,2,1,0,0,1
1404,동일로 지하차도,중랑구,37.595299,127.080032,5/2/2017,10,LCD,중화2동,208.4615644,0,4,0,1,0,1
1405,망우역 1번출구,중랑구,37.599098,127.092949,4/26/2017,10,LCD,중화2동,52.19716357,3,2,2,2,0,1
1406,망우청소년수련관,중랑구,37.606251,127.108269,4/26/2017,10,LCD,상봉1동,65.68512471,2,1,0,8,0,3
1407,먹골역 1번출구 뒤,중랑구,37.611511,127.077888,6/22/2017,10,LCD,망우본동,39.60922664,3,1,1,2,0,1
1408,먹골역 6번출구 앞,중랑구,37.610722,127.077477,4/26/2017,10,LCD,묵1동,133.6121293,2,1,0,2,0,1
1410,면목 대원칸타빌아파트,중랑구,37.577782,127.090187,4/26/2017,10,LCD,묵2동,25.31143048,2,1,0,1,0,0
1411,상봉시장앞 교차로 한성빌딩 앞,중랑구,37.592541,127.086739,6/27/2017,10,LCD,면목7동,60.42376922,4,3,1,1,0,0
1412,면목초등학교,중랑구,37.590961,127.087067,4/26/2017,10,LCD,면목본동,43.40605214,2,1,1,1,0,0
1413,봉화산역 5번출구 뒤,중랑구,37.617561,127.090309,4/26/2017,10,LCD,면목본동,113.6656782,2,1,0,5,0,1
1414,사가정역 1번출구,중랑구,37.581646,127.088432,6/22/2017,10,LCD,묵1동,46.94903473,6,1,0,1,0,0
1416,상봉역 3번출구,중랑구,37.595219,127.085999,6/22/2017,10,LCD,면목제3.8동,92.81993272,2,3,1,1,0,0
1418,새솔초등학교,중랑구,37.617989,127.110542,4/26/2017,15,LCD,상봉2동,103.4083699,1,0,0,1,0,0
1420,신내어울공원 앞,중랑구,37.614231,127.096764,4/26/2017,15,LCD,신내1동,90.4511914,3,0,0,1,0,0
1421,신내역 4번출구,중랑구,37.612461,127.103378,4/26/2017,20,LCD,신내1동,86.13594683,6,2,0,0,0,0
1422,신내우디안아파트 1단지,중랑구,37.620098,127.106461,4/26/2017,10,LCD,망우본동,101.5027443,3,0,0,1,0,0
1424,양원역 2번출구,중랑구,37.606312,127.107742,4/26/2017,10,LCD,신내1동,20.74108401,2,1,0,8,0,3
1425,용마문화복지센터,중랑구,37.58746,127.09597,4/26/2017,10,LCD,망우본동,109.3203718,4,0,0,3,0,1
1426,면목도시개발아파트 1동 앞,중랑구,37.573589,127.086823,4/26/2017,15,LCD,면목제3.8동,26.70957773,2,1,3,3,0,0
1427,용마산역 1번출구,중랑구,37.574299,127.086914,6/22/2017,10,LCD,면목4동,99.30642475,2,1,3,3,0,0
1428,원묵고등학교,중랑구,37.616024,127.085968,6/22/2017,10,LCD,면목4동,57.89573341,4,2,0,6,0,2
1429,장안중학교,중랑구,37.599957,127.080002,6/22/2017,15,LCD,묵1동,49.95195871,8,1,0,4,0,0
1430,중랑구청,중랑구,37.606152,127.092598,6/22/2017,20,LCD,중화1동,91.63907574,2,0,0,4,0,0
1431,중랑구청 사거리,중랑구,37.606499,127.095451,6/22/2017,10,LCD,신내2동,65.22890445,4,0,0,5,0,0
1433,중화역 2번출구,중랑구,37.602077,127.079582,6/22/2017,10,LCD,신내1동,62.5453478,6,1,0,5,0,0
1434,홈플러스 면목동점,중랑구,37.579868,127.082367,4/26/2017,15,LCD,중화1동,28.11466236,1,0,0,0,0,0
1435,능산삼거리,중랑구,37.608681,127.100792,4/26/2017,15,LCD,면목5동,154.3729741,0,1,0,4,0,1
1436,영풍마드레빌,중랑구,37.605881,127.100632,4/26/2017,15,LCD,신내1동,32.28983153,2,0,0,7,0,1
1437,늘푸른공원 앞,중랑구,37.58342,127.079926,4/26/2017,15,LCD,신내1동,42.859252,2,0,0,0,0,0
1438,홈플러스 신내점 앞,중랑구,37.616169,127.093483,4/26/2017,15,LCD,면목5동,60.08722077,5,1,0,2,0,1
1440,하나은행 면목지점,중랑구,37.586372,127.08007,8/1/2017,10,LCD,신내2동,82.79725924,7,0,0,1,0,0
1441,신내능말공원,중랑구,37.616711,127.110733,4/26/2017,15,LCD,면목5동,27.04565348,2,0,0,1,0,0
1442,(구)신한은행 중랑교지점,중랑구,37.598591,127.079819,11/1/2017,8,LCD,신내1동,18.82304569,6,3,0,2,0,1
1443,구립망우청소년독서실,중랑구,37.59552,127.098778,11/1/2017,10,LCD,중화2동,32.77710712,5,0,0,5,0,1
1444,면목4치안센터,중랑구,37.574028,127.080544,11/1/2017,10,LCD,망우본동,79.4955634,2,0,3,2,0,2
1445,용마지구대,중랑구,37.579941,127.079399,11/1/2017,10,LCD,면목4동,36.91582026,2,0,0,3,0,1
1446,중랑전화국 교차로,중랑구,37.591301,127.08033,11/1/2017,10,LCD,면목5동,49.94463447,4,0,0,2,0,1
1447,면목역 3번출구,중랑구,37.588902,127.08728,11/1/2017,15,LCD,면목2동,25.86076069,6,1,0,2,0,1
1448,코스트코 상봉점,중랑구,37.597321,127.089798,11/1/2017,15,LCD,면목본동,52.91660842,3,5,2,1,0,0
1449,상봉역 1번출구,중랑구,37.596558,127.085838,11/28/2017,15,LCD,상봉2동,124.3970277,1,3,1,1,0,0
1450,화랑대역 7번출구,중랑구,37.619625,127.085014,11/28/2017,10,LCD,상봉1동,57.00629394,4,1,1,6,0,0
1451,중랑세무서,중랑구,37.592758,127.07267,11/28/2017,10,LCD,묵1동,73.51033693,3,2,1,1,0,0
1452,겸재교 진입부,중랑구,37.585655,127.07505,11/29/2017,15,LCD,상봉2동,73.03021472,3,0,0,4,0,0
1453,중랑캠핑숲,중랑구,37.604603,127.109253,12/22/2017,9,LCD,면목2동,59.0168838,1,1,0,10,0,3
1454,한국전력공사(동대문 중랑지사),중랑구,37.607349,127.07859,12/22/2017,10,LCD,망우본동,42.29662991,2,1,0,4,0,0
1455,상봉역 2번 출구,중랑구,37.596329,127.085899,2/13/2018,10,LCD,묵1동,123.2513922,1,3,1,1,0,0
1456,상아빌딩(우림시장 교차로),중랑구,37.595112,127.100327,2/26/2018,10,LCD,상봉2동,76.36855124,3,0,0,6,0,1
1457,동원사거리,중랑구,37.58976,127.093239,2/26/2018,10,LCD,망우3동,73.41024486,5,0,0,2,0,2
1458,상봉터미널2,중랑구,37.59734,127.093086,11/2/2018,9,LCD,면목본동,97.40391832,3,2,2,0,0,1
1459,용마한신아파트사거리,중랑구,37.59734,127.093086,10/29/2018,10,LCD,망우본동,97.40391832,3,2,2,0,0,1
1461,동양엔파트 앞,중랑구,37.593853,127.075073,4/21/2020,12,QR,망우본동,20.23963154,4,2,1,1,0,1
1462,동부시장 북문 앞,중랑구,37.593868,127.076523,5/5/2020,9,QR,중화2동,23.33886943,4,2,1,2,0,1
1463,중랑구민회관,중랑구,37.573887,127.084831,4/30/2020,10,QR,상봉2동,100.129973,3,1,3,3,0,0
1464,중화역 4번출구,중랑구,37.603054,127.079002,4/21/2020,15,QR,면목4동,45.8838593,3,1,0,5,0,0
1465,중랑공영차고지 옆,중랑구,37.613148,127.105148,4/14/2020,10,QR,중화2동,41.85351872,5,2,0,0,0,0
1466,두산대림아파트 삼거리,중랑구,37.618824,127.08757,4/14/2020,10,QR,신내1동,65.99148889,3,2,1,5,0,1
1467,sk신내 주유소앞(용마산로),중랑구,37.613621,127.101151,4/14/2020,10,QR,묵1동,76.94653022,8,2,0,0,0,0
1468,먹골역 7번 출구,중랑구,37.611477,127.077393,4/21/2020,10,QR,신내1동,65.39238324,4,1,1,1,0,2
1469,먹골역 4번출구,중랑구,37.609821,127.078133,4/21/2020,20,QR,묵2동,51.02063679,2,1,0,2,0,1
1470,중화동 우리은행 앞,중랑구,37.605202,127.078583,4/20/2020,20,QR,묵1동,95.44188059,3,1,0,4,0,0
1471,동양쇼핑 정류소 앞,중랑구,37.615353,127.078491,6/18/2020,10,QR,중화2동,7.323759137,6,2,2,0,0,1
1472,영성빌딩(PAT),중랑구,37.604084,127.079231,4/20/2020,8,QR,묵1동,139.3620409,1,1,0,6,0,0
1473,중랑역 1번 출구(중화문화복지센터),중랑구,37.594891,127.074951,4/21/2020,10,QR,중화1동,117.5611781,3,2,1,0,0,2
1474,서울중랑우체국,중랑구,37.595814,127.08284,5/5/2020,10,QR,중화2동,30.03556665,3,3,1,1,0,1
1477,면목삼익아파트 앞,중랑구,37.575985,127.079605,4/14/2020,15,QR,상봉1동,145.8329768,1,0,1,4,0,4
1478,홈플러스 상봉점 앞,중랑구,37.597885,127.091263,4/21/2020,10,QR,면목4동,12.65589367,3,2,2,1,0,1
1479,면목 홈플러스 2 ,중랑구,37.581055,127.082092,4/14/2020,10,QR,상봉1동,31.89663393,4,0,0,0,0,0
1480, 용마지구대 옆,중랑구,37.581112,127.080101,4/16/2020,15,QR,면목5동,59.09634313,4,0,0,1,0,1
1302,한성대입구역6번출구 뒤,성북구,37.588764,127.00631,6/20/2017,5,LCD,면목5동,50.14795778,9,1,27,7,0,1
1303,돈암초교 입구,성북구,37.591694,127.012497,6/30/2017,10,LCD,성북동,19.68899617,3,2,9,3,0,0
1304,만해공원,성북구,37.594402,126.99231,6/20/2017,15,LCD,성북동,54.56491551,5,0,13,1,0,1
1305,성북구청,성북구,37.589329,127.016434,8/3/2017,15,LCD,성북동,106.8518377,3,2,7,2,0,1
1306,한성대입구역2번출구,성북구,37.588448,127.006706,6/22/2017,10,LCD,삼선동,12.18499159,6,1,26,5,0,1
1308,안암로터리 버스정류장 앞,성북구,37.582592,127.028976,6/20/2017,18,LCD,삼선동,3.385671107,5,1,4,2,0,0
1314,정릉꿈에그린1단지 201동 앞,성북구,37.60244,127.011688,4/26/2017,8,LCD,안암동,17.02545844,10,1,1,2,0,0
1315,고려사대부속중고 정문,성북구,37.607761,127.003281,4/26/2017,10,LCD,정릉2동,53.14757484,3,0,3,3,0,0
1316,고려사대부속중고 건너편,성북구,37.607262,127.002838,4/26/2017,20,LCD,정릉3동,15.12118288,2,0,3,3,0,0
1318,길음역 3번출구 뒤,성북구,37.603085,127.024788,4/26/2017,10,LCD,정릉3동,81.35265244,9,1,2,1,0,1
1319,종암사거리 분수대,성북구,37.603043,127.033272,4/26/2017,10,QR,길음1동,82.00106108,1,0,1,1,0,0
1320,LG베스트샵 종암점,성북구,37.59827,127.035027,5/2/2017,10,LCD,월곡1동,11.57324761,2,0,2,3,0,0
1321,국민은행 종암동지점 앞,성북구,37.593288,127.036667,5/11/2017,14,LCD,종암동,103.6142281,4,1,0,4,0,0
1322,래미안라센트아파트 103동 앞,성북구,37.598068,127.039276,4/26/2017,10,LCD,종암동,183.1788394,0,1,1,3,0,0
1323,월곡역 입구 육교 밑,성북구,37.600433,127.040207,4/26/2017,10,LCD,종암동,101.9748603,1,1,0,1,0,0
1325,상월곡역 4번출구,성북구,37.605808,127.047737,4/26/2017,10,LCD,종암동,48.52823174,5,1,2,2,0,3
1326,상월곡역 1번출구,성북구,37.606068,127.047318,4/26/2017,10,LCD,월곡2동,50.35557271,6,1,3,3,0,3
1327,상월곡역 3번출구,성북구,37.607342,127.050682,4/26/2017,10,LCD,월곡2동,93.30500465,2,1,2,2,0,2
1328,월곡역 3번출구,성북구,37.602627,127.041634,6/27/2017,10,LCD,월곡2동,59.99379317,3,1,1,2,0,0
1332,석계역 5번출구 건너편,성북구,37.613556,127.066093,4/26/2017,10,LCD,월곡2동,61.58889429,3,2,2,1,0,0
1333,석관초등학교 앞,성북구,37.610523,127.059799,4/26/2017,15,LCD,석관동,152.8640239,0,1,0,1,0,0
1334,석관동주민센터 앞,성북구,37.612999,127.06131,4/26/2017,10,LCD,석관동,1.762759961,4,1,2,1,0,0
1336,성북3교 위,성북구,37.591251,127.014008,11/13/2017,20,LCD,석관동,34.87290325,5,2,10,1,0,1
1337,돈암성당 옆,성북구,37.590382,127.017136,11/13/2017,10,LCD,삼선동,62.96586259,3,2,9,2,0,1
1338,용문2교 옆,성북구,37.586899,127.020752,11/13/2017,15,LCD,동선동,141.2950008,1,2,0,3,0,0
1339,삼성전자서비스 성북센터,성북구,37.610569,127.033508,11/13/2017,9,LCD,안암동,43.99781623,5,1,3,6,0,0
1340,광운초등학교 앞,성북구,37.61956,127.053802,11/13/2017,11,LCD,월곡1동,117.1311865,6,0,1,6,0,1
1342,성북쉼터 앞,성북구,37.592617,126.997932,11/13/2017,15,LCD,장위3동,52.06964023,2,0,20,7,0,3
1343,한성대7번출구 앞,성북구,37.589249,127.007378,11/13/2017,10,LCD,성북동,10.41042321,5,1,21,4,0,1
1344,아리랑시네센터 앞,성북구,37.600288,127.013702,11/13/2017,10,LCD,성북동,27.44844905,7,1,1,2,0,0
1346,길음8골어린이공원 옆,성북구,37.608978,127.020248,11/13/2017,15,LCD,돈암2동,7.438792636,3,0,1,3,0,0
1347,길음래미안아파트817동 상가 앞,성북구,37.607105,127.0215,11/13/2017,20,LCD,길음1동,69.74716637,2,0,2,3,0,1
1348,성북제일새마을금고 본점 앞,성북구,37.604752,127.022758,11/13/2017,12,LCD,길음1동,13.5102964,5,1,2,1,0,1
1349,월계2교 버스정류장 앞,성북구,37.623829,127.050201,11/13/2017,10,LCD,길음1동,6.012464129,6,0,0,3,0,1
1351,안암2교 옆,성북구,37.579449,127.024193,11/13/2017,8,LCD,장위3동,79.02791576,2,2,2,3,0,0
1352,e 편한세상 보문아파트 내,성북구,37.583881,127.017097,11/13/2017,8,LCD,안암동,233.4839431,0,2,0,5,0,0
1353,금호어울림센터힐 내,성북구,37.60083,127.023552,11/13/2017,8,LCD,보문동,132.416995,2,1,2,4,0,1
1354,고려대학교 2번출구,성북구,37.590714,127.036194,11/28/2017,18,LCD,돈암1동,38.95339637,1,1,1,4,0,0
1355,보문2교,성북구,37.588699,127.018913,12/22/2017,20,LCD,안암동,44.08313984,6,4,6,5,0,1
1357,북한산보국문역,성북구,37.612072,127.008133,2/26/2018,20,LCD,안암동,17.34399399,8,1,2,0,0,0
1358,정릉도서관 앞,성북구,37.60479,127.010582,2/26/2018,7,LCD,정릉4동,48.17514772,5,1,0,2,0,0
1359,장위뉴타운 꿈에 숲 코오롱 하늘채 앞,성북구,37.619801,127.045097,2/26/2018,20,LCD,정릉2동,2.200373222,13,0,2,3,0,2
1360,정릉역,성북구,37.603096,127.013504,2/26/2018,10,LCD,장위3동,11.47959902,3,1,1,1,0,0
1361,홍익중고 입구,성북구,37.592842,127.002121,2/26/2018,20,LCD,정릉1동,70.74227617,4,0,21,8,0,3
1362,보문역6번출구 앞,성북구,37.585098,127.019676,11/2/2018,10,LCD,성북동,65.2183791,5,2,0,4,0,0
1363,보문4교 인근,성북구,37.583752,127.02195,11/4/2018,15,LCD,보문동,167.6459501,0,2,1,2,0,0
1364,성북동 치안센터 앞,성북구,37.590172,127.004089,11/2/2018,10,LCD,안암동,62.02223056,4,1,30,8,0,2
1365,선잠단지 앞,성북구,37.593361,126.999092,10/27/2018,15,LCD,성북동,56.38966001,5,0,19,8,0,2
1366,일신초등학교 옆,성북구,37.59972,127.040382,10/26/2018,10,LCD,성북동,74.42483188,1,1,0,2,0,0
1367,길음문화복합미디어센터,성북구,37.603512,127.02256,11/2/2018,15,LCD,종암동,29.04669295,6,1,2,2,0,1
1368,성신여대입구 교차로,성북구,37.59148,127.020103,11/2/2018,10,LCD,길음1동,85.78981579,1,2,8,6,0,1
1369,미아사거리,성북구,37.609131,127.030029,10/26/2018,15,LCD,동선동,109.4837703,4,1,1,4,0,0
1370,복자사랑 피정의 집,성북구,37.59454,126.995209,10/27/2018,20,LCD,길음2동,109.72055,5,0,16,4,0,2
1372,KEB은행 고대점,성북구,37.586445,127.031601,10/24/2018,15,LCD,성북동,63.31921076,5,1,2,2,0,0
1373,성북구보건소 건너편,성북구,37.602291,127.038979,9/24/2020,8,QR,안암동,40.20216754,2,1,0,1,0,0
1375,생명의 전화 종합복지관 앞 교차로,성북구,37.603909,127.037376,12/27/2018,20,LCD,월곡2동,39.06627933,4,1,0,0,0,0
1376,한국과학기술연구원 중문,성북구,37.600239,127.04538,5/21/2019,7,LCD,월곡1동,254.7188144,0,1,0,1,0,0
1377,한국과학기술연구원 북문,성북구,37.603958,127.045341,5/21/2019,10,LCD,월곡2동,26.06290833,2,2,3,2,0,1
1379,길음뉴타운푸르지오아파트 3단지,성북구,37.60936,127.018173,3/26/2020,15,QR,월곡2동,152.0297436,0,0,0,3,0,0
1380,월곡역 5번출구 앞,성북구,37.601086,127.041237,3/30/2020,10,QR,길음1동,65.37981184,2,1,0,1,0,0
1381,석계역 4번출구 뒤,성북구,37.614784,127.067001,3/25/2020,10,QR,월곡2동,33.09660772,4,2,2,0,0,0
1384,성신여대입구역 5번출구,성북구,37.592827,127.016289,3/28/2020,10,QR,석관동,61.27363838,6,2,12,1,0,1
1385,성신여대입구역 3번출구 앞,성북구,37.592365,127.016289,6/17/2020,10,QR,동선동,16.495682,6,2,12,1,0,1
1386,동선고가차도 초입,성북구,37.594158,127.018967,3/28/2020,10,QR,삼선동,86.97100132,2,2,9,7,0,1
1388,커핀그루나루,성북구,37.590881,127.011704,3/28/2020,10,QR,동선동,53.40478045,3,1,10,4,0,0
1390,석관래미안아트리치,성북구,37.606461,127.061623,5/5/2020,10,QR,삼선동,92.40531407,3,0,0,2,0,0
1391,성북청소년센터,성북구,37.617073,127.056244,3/24/2020,20,QR,석관동,41.43423441,6,0,3,6,0,0
1392,돈암삼성풍림아파트,성북구,37.597099,127.022629,3/27/2020,10,QR,장위3동,61.15233968,3,0,2,7,0,0
1393,미아 구름다리,성북구,37.597778,127.021507,5/5/2020,10,QR,돈암1동,31.93781199,6,0,3,7,0,0
1394,길음뉴타운 래미안9단지,성북구,37.602417,127.019714,3/27/2020,10,QR,돈암1동,19.79537511,2,1,0,1,0,1
1395,레미안장위포레카운티(102동),성북구,37.618179,127.051834,3/25/2020,20,QR,길음1동,31.74760929,5,0,1,5,0,0
1396,레미안장위퍼스트하이(513동),성북구,37.618443,127.051453,3/25/2020,20,QR,장위3동,25.48853264,6,0,1,5,0,0
1501,"미아역 3번,4번 출구 사이",강북구,37.62608,127.026482,8/3/2017,9,LCD,장위1동,62.66553572,5,1,0,4,0,0
1503,이디야 커피 수유역점 앞,강북구,37.639278,127.026756,5/11/2017,12,LCD,미아동,33.64232683,8,1,5,0,0,1
1504,다이소 삼양시장점,강북구,37.624157,127.018623,5/11/2017,10,LCD,수유3동,73.119586,10,2,0,1,0,0
1506,강북문화예술회관,강북구,37.640327,127.013359,5/11/2017,20,LCD,송천동,66.36997176,5,1,4,2,0,0
1509,서울북부수도사업소,강북구,37.634377,127.035751,6/22/2017,10,LCD,인수동,39.40287329,4,0,0,4,0,2
1510,번동주공5단지 관리사무소 앞,강북구,37.633717,127.035515,6/22/2017,10,LCD,번2동,81.01340226,7,0,0,4,0,2
1511,번동 금호어울림아파트102동앞,강북구,37.631123,127.036034,6/22/2017,9,LCD,번2동,76.05802486,4,0,0,3,0,3
1512,강북중학교 앞,강북구,37.644737,127.026566,6/22/2017,20,LCD,번2동,184.1019762,0,0,2,2,0,1
1513,강북구청 뒷편,강북구,37.639648,127.025124,6/22/2017,20,LCD,수유3동,111.3845129,4,1,3,0,0,1
1514,강북구청 사거리 버스정류소 앞,강북구,37.638805,127.028358,5/11/2017,10,LCD,수유3동,4.229086337,4,1,3,1,0,1
1515,송천동 주민센터,강북구,37.618286,127.024048,5/11/2017,10,LCD,번1동,108.4051965,2,1,0,4,0,0
1516,우이초등학교 후문 옆,강북구,37.638706,127.015907,5/11/2017,10,LCD,송천동,185.8079766,0,1,2,1,0,0
1518,SK telecom(수유직영점) 앞,강북구,37.643085,127.016167,5/11/2017,10,LCD,인수동,137.0294245,1,1,2,0,0,0
1519,세븐일레븐 수유장미원점 앞,강북구,37.645451,127.015617,5/11/2017,10,LCD,인수동,47.15789949,2,2,0,1,0,0
1520,성실교회,강북구,37.639862,127.022789,1/25/2021,10,QR,수유2동,55.75478743,3,1,3,0,0,1
1522,월드전기조명인테리어(우이동),강북구,37.654472,127.012756,6/22/2017,10,LCD,수유3동,16.45318883,2,1,2,2,0,0
1525,미아동 복합청사,강북구,37.62714,127.026695,5/11/2017,10,LCD,우이동,76.32004081,4,1,0,4,0,0
1526,수유동 채선당앞,강북구,37.641739,127.024628,11/1/2017,8,LCD,미아동,93.58292127,1,1,3,1,0,1
1527,미아역 1번 출구 뒤,강북구,37.627335,127.026054,11/1/2017,10,LCD,수유3동,28.87327086,4,1,0,4,0,0
1528,삼각산동 주민센터,강북구,37.615036,127.020699,11/1/2017,10,LCD,미아동,67.95218591,4,0,1,7,0,0
1529,미아동 한국전력공사,강북구,37.63018,127.02491,11/1/2017,15,LCD,삼각산동,43.66437129,3,1,1,5,0,0
1530,광산사거리,강북구,37.643551,127.022346,11/1/2017,10,LCD,미아동,37.68626039,9,0,1,1,0,0
1531,미아사거리 1번 출구,강북구,37.613956,127.030251,11/1/2017,10,LCD,수유2동,13.86305503,11,1,4,4,0,0
1532,번3동 주민센터 교차로,강북구,37.626354,127.047447,11/1/2017,10,LCD,송중동,76.09566356,5,0,0,7,0,0
1533,"번동 주공3, 4단지 교차로",강북구,37.629917,127.040916,11/1/2017,10,LCD,번3동,13.44696575,4,0,0,2,0,1
1534,북서울 꿈의 숲 동문,강북구,37.619637,127.044533,11/1/2017,20,LCD,번3동,24.70790383,9,0,2,3,0,2
1535,효성인텔리안 앞,강북구,37.636292,127.023376,11/1/2017,10,LCD,번3동,70.50501773,7,1,2,0,0,1
1536,번동 두산위브 101동 옆,강북구,37.636261,127.032173,11/1/2017,20,LCD,수유3동,90.27575807,4,0,1,2,0,0
1537,북한산 우이역,강북구,37.663666,127.012428,2/26/2018,10,LCD,번1동,28.83413847,7,1,0,0,0,1
1538,솔밭공원역,강북구,37.656158,127.013138,2/26/2018,8,LCD,우이동,126.347281,2,1,2,2,0,1
1539,4.19민주묘지역,강북구,37.649673,127.013451,2/26/2018,9,LCD,우이동,66.64154693,2,1,2,2,0,1
1540,가오리역,강북구,37.64167,127.016884,2/26/2018,10,LCD,우이동,6.510179421,4,1,2,1,0,0
1541,삼양역,강북구,37.62653,127.018059,2/26/2018,10,LCD,수유2동,138.2703766,2,1,0,1,0,0
1542,삼양사거리역,강북구,37.621552,127.02037,2/26/2018,10,LCD,삼양동,14.75014526,2,1,0,3,0,0
1543,수유1동 주민센터,강북구,37.630188,127.017738,2/26/2018,10,LCD,삼양동,19.18617582,7,2,0,2,0,1
1545,솔샘역 2번 출구,강북구,37.62038,127.01368,7/27/2018,10,LCD,수유1동,78.10463383,3,1,0,6,0,1
1546,송천동우체국,강북구,37.615459,127.029701,10/25/2018,10,LCD,삼양동,8.761891498,5,1,3,4,0,0
1547,꿈의숲 롯데캐슬,강북구,37.618641,127.03624,12/14/2018,15,LCD,송천동,21.22856844,2,0,3,1,0,3
1548,북서울 꿈의숲 서문,강북구,37.622688,127.037811,12/14/2018,15,LCD,송중동,3.834786206,8,0,4,0,0,3
1550,삼각산아이원아파트(105동 옆),강북구,37.615223,127.018509,7/21/2020,10,QR,번3동,127.1755976,2,0,1,9,0,0
1551,4.19탑 앞,강북구,37.646862,127.008812,3/25/2020,8,QR,삼각산동,16.10275912,8,0,1,2,0,3
1552,강북구청사거리(던킨도너츠 앞),강북구,37.639202,127.027237,3/25/2020,8,QR,우이동,33.01599647,7,1,5,0,0,1
1553,예수그리스도후기성도교회 앞,강북구,37.635204,127.033966,3/26/2020,15,QR,번1동,17.98548612,8,0,1,3,0,1
1554,번동사거리,강북구,37.635391,127.034554,3/25/2020,10,QR,번2동,29.01059694,9,0,1,3,0,1
1557,신창교,강북구,37.632381,127.039307,3/27/2020,10,QR,번1동,12.61550337,7,0,0,3,0,2
1558,강북문화정보도서관,강북구,37.625526,127.037323,3/26/2020,15,QR,번2동,42.15651531,5,0,4,0,0,1
1560,도봉세무서 앞,강북구,37.619808,127.028526,3/27/2020,10,QR,번3동,20.00214641,2,0,0,4,0,0
1564,4.19민주묘지역 1번출구,강북구,37.649597,127.013847,3/25/2020,7,QR,송천동,55.40561241,2,1,2,3,0,1
1565,대한병원앞,강북구,37.635612,127.022995,3/25/2020,15,QR,우이동,54.71708691,5,1,2,0,0,2
1568,4.19민주묘지 입구사거리,강북구,37.647934,127.014572,3/25/2020,10,QR,인수동,79.43537464,3,1,0,1,0,1
1569,수유역2번출구,강북구,37.63797,127.025902,3/28/2020,10,QR,수유2동,36.78394173,8,1,4,0,0,1
1702,녹천역 1번출구 앞,도봉구,37.646172,127.05056,5/8/2017,10,LCD,번1동,65.85487813,1,1,0,5,0,0
1703,도봉산광역환승센터앞,도봉구,37.68972,127.045197,5/11/2017,15,LCD,창1동,62.01553076,6,2,0,1,0,1
1705,도봉구청 정문앞,도봉구,37.669224,127.046516,5/8/2017,8,LCD,도봉1동,30.78850665,5,1,1,2,0,1
1706,기업은행 앞,도봉구,37.665665,127.042671,6/27/2017,10,LCD,방학1동,33.53192705,4,1,1,1,0,3
1707,도봉구민회관,도봉구,37.654461,127.038513,5/8/2017,15,LCD,방학1동,31.86631784,5,0,6,5,0,2
1708,보건소사거리(다비치안경창동점),도봉구,37.65683,127.039848,5/11/2017,8,LCD,창5동,62.51327792,4,0,5,4,0,1
1709,쌍문역4번출구 주변,도봉구,37.650127,127.035347,5/8/2017,15,LCD,창5동,117.1688911,2,1,2,6,0,1
1714,도봉문화정보도서관 삼거리,도봉구,37.64463,127.044609,11/1/2017,10,LCD,쌍문3동,69.14741988,2,0,0,2,0,0
1715,서울특별시교육청도봉도서관,도봉구,37.653179,127.012787,11/1/2017,20,LCD,창1동,159.0136804,0,2,2,3,0,1
1716,하나로마트 창동점,도봉구,37.654202,127.050728,11/1/2017,10,LCD,쌍문1동,45.72757783,10,2,5,2,0,1
1717,시립창동운동장 입구,도봉구,37.655708,127.050102,11/1/2017,15,LCD,창4동,31.37742095,6,2,5,3,0,1
1719,신도봉사거리 버스정류장,도봉구,37.673283,127.043991,11/1/2017,10,LCD,창4동,13.79381444,4,0,0,2,0,0
1720,도봉구청 옆(중랑천변),도봉구,37.668671,127.047981,11/1/2017,27,LCD,도봉1동,148.5614352,2,1,0,2,0,1
1721,창동역 2번출구,도봉구,37.653015,127.046997,11/1/2017,12,LCD,방학1동,95.90498144,2,2,4,2,0,1
1722,창동청소년수련관,도봉구,37.657799,127.050049,11/28/2017,15,LCD,창5동,103.7171346,3,0,4,2,0,0
1723,방학동학마을도서관,도봉구,37.662079,127.027718,11/28/2017,10,LCD,창4동,53.650989,8,0,0,4,0,3
1725,창1동주민센터,도봉구,37.647503,127.043312,11/28/2017,10,LCD,방학3동,100.95754,2,0,0,3,0,0
1726,삼익세라믹아파트교차로,도봉구,37.658588,127.03521,11/28/2017,8,LCD,창1동,60.9743836,6,0,1,2,0,1
1727,서울도봉초등학교인근,도봉구,37.678677,127.040764,11/28/2017,15,LCD,쌍문2동,31.24919654,4,1,1,2,0,0
1728,서울북부지방법원,도봉구,37.677666,127.046242,7/2/2018,15,LCD,도봉1동,109.9686487,3,1,1,0,0,1
1729,파리바게트앞,도봉구,37.68401,127.045792,10/27/2018,10,LCD,도봉2동,14.37235871,2,0,0,4,0,0
1730,도봉산역 교차로 앞,도봉구,37.687592,127.045502,10/27/2018,10,LCD,도봉1동,112.0488223,2,2,0,3,0,1
1731,도봉고등학교 맞은편,도봉구,37.6875,127.042557,11/2/2018,15,LCD,도봉1동,110.3875085,3,2,0,1,0,0
1732,우리은행 앞,도봉구,37.667599,127.042999,10/27/2018,10,LCD,도봉1동,140.8855786,1,1,1,1,0,1
1733,방학사거리 (봄마당 앞),도봉구,37.662979,127.041939,10/27/2018,12,LCD,방학1동,85.9876405,4,0,1,1,0,3
1734,쌍문현대1차아파트 108동 앞,도봉구,37.65815,127.032669,10/27/2018,10,LCD,방학1동,26.7832017,5,0,0,2,0,1
1735,"도봉역 1,2번 출구사이 건너편",도봉구,37.679119,127.044983,10/27/2018,13,LCD,쌍문4동,124.7376637,4,1,1,1,0,1
1736,버스정류장 앞,도봉구,37.652241,127.037064,10/27/2018,12,LCD,도봉1동,42.40519318,6,1,5,7,0,1
1737,하나은행 (창동점),도봉구,37.639702,127.038834,10/27/2018,8,LCD,창5동,56.27155829,4,0,0,2,0,1
1738,창동주공17단지 상가앞,도봉구,37.646309,127.052742,12/14/2018,10,LCD,창2동,87.99368205,6,1,0,5,0,1
1741,제일강산수산입구,도봉구,37.645199,127.032982,10/27/2018,15,LCD,창4동,30.87595815,2,1,2,1,0,0
1742,북한산 코오롱 하늘채,도봉구,37.648891,127.023018,12/14/2018,10,LCD,창2동,8.536835266,5,0,0,2,0,1
1743,창동19단지아파트 관리사무소앞,도봉구,37.650391,127.052193,3/17/2020,10,QR,쌍문1동,130.4425059,2,1,1,3,0,1
1744,KT방학지사 앞,도봉구,37.665272,127.043144,3/21/2020,15,QR,창4동,45.10064168,4,1,1,1,0,3
1746, 다이소방학점 앞,도봉구,37.666233,127.04332,3/21/2020,10,QR,방학1동,31.86915234,4,1,1,1,0,2
1748, 피자헛 앞(도봉병원 옆),도봉구,37.668983,127.043762,3/21/2020,7,QR,방학1동,23.82646905,3,1,1,2,0,1
1749, ESA아파트 상가 앞,도봉구,37.666271,127.04599,3/21/2020,10,QR,방학1동,5.142798309,6,1,1,3,0,2
1750, 창포원 남쪽 입구,도봉구,37.688267,127.048897,3/23/2020,12,QR,방학1동,42.47734367,2,2,1,2,0,1
1751, 창원초등학교 교차로,도봉구,37.652123,127.041702,3/23/2020,15,QR,도봉2동,89.07841478,3,0,4,4,0,0
1752, 창동 주공 4단지 입구 옆,도봉구,37.645481,127.048576,3/17/2020,10,QR,창5동,33.55172082,2,1,0,4,0,0
1754, 창동시장입구 사거리,도봉구,37.646896,127.033432,3/17/2020,10,QR,창1동,86.41737259,3,1,1,1,0,0
1756,서울북부광역등기국,도봉구,37.651447,127.044708,3/17/2020,10,QR,쌍문3동,14.90760887,3,2,1,4,0,1
1757,솔밭공원역 1번출구 앞,도봉구,37.655685,127.013382,3/25/2020,10,QR,창5동,74.79518014,2,1,2,2,0,0
1758,북서울교회 버스정류소 앞,도봉구,37.65728,127.013756,3/25/2020,10,QR,쌍문1동,9.42878291,6,1,0,2,0,1
1759,서울북부지방법원 앞,도봉구,37.677219,127.048637,3/18/2020,10,QR,쌍문1동,26.25834058,5,1,2,0,0,1
1761,방학중학교 앞,도봉구,37.665623,127.03109,3/21/2020,10,QR,도봉2동,167.9956227,0,0,1,4,0,1
1762,북한산 한신휴플러스APT앞,도봉구,37.655338,127.042419,3/18/2020,30,QR,방학2동,172.2154391,0,0,5,4,0,1
1765,쌍문역 1번 출구(양산부인과 빌딩),도봉구,37.64967,127.035614,3/18/2020,10,QR,창5동,120.6611267,1,1,2,4,0,1
1767,태양중앙교회 앞,도봉구,37.66251,127.033279,3/21/2020,10,QR,창1동,74.10128537,4,0,0,3,0,2
1768,신동아타워 버스정류소,도봉구,37.662052,127.028755,3/21/2020,8,QR,방학2동,6.160869083,6,0,0,5,0,3
1771,성원APT버스정류소,도봉구,37.657967,127.03009,3/18/2020,15,QR,방학3동,6.152065741,7,0,0,5,0,2
1772,시립도봉노인복지관 버스정류소,도봉구,37.658051,127.035759,3/23/2020,10,QR,쌍문4동,21.2153736,5,0,4,2,0,1
1774,반석교회(쌍문동),도봉구,37.651348,127.034729,3/17/2020,8,QR,쌍문2동,29.90853585,4,1,5,6,0,1
1775,신원리베르텔 앞,도봉구,37.651287,127.045548,3/17/2020,15,QR,쌍문2동,55.13677174,5,2,1,4,0,1
1601,석계역 문화광장 내 자전거 보관소,노원구,37.615299,127.064468,5/8/2017,20,LCD,창5동,13.67642373,7,2,2,0,0,0
1602,광운대역 앞,노원구,37.622662,127.061897,6/27/2017,15,LCD,월계1동,26.2923747,4,2,3,1,0,0
1605,헬스케어,노원구,37.631622,127.061615,6/22/2017,10,LCD,월계1동,7.645390211,4,1,0,4,0,0
1606,태릉입구역 3번출구,노원구,37.619171,127.074928,5/8/2017,10,LCD,월계3동,29.33324614,3,2,2,1,0,4
1608,공릉역 1번 출구 앞,노원구,37.626614,127.072754,5/26/2017,10,LCD,공릉1동,4.784287411,5,1,1,3,0,0
1610,화랑대역 2번출구 앞,노원구,37.620369,127.083641,5/8/2017,20,LCD,공릉1동,17.01749827,2,1,1,5,0,1
1611,과기대 입구(우),노원구,37.62994,127.076553,5/8/2017,20,LCD,공릉2동,59.7625326,3,0,1,5,0,0
1616,하계2동 공항버스정류장 옆,노원구,37.635109,127.068329,5/8/2017,10,LCD,공릉2동,5.462208114,7,1,0,3,0,0
1617,하계동 중평어린이공원 앞,노원구,37.63715,127.063271,5/8/2017,20,LCD,하계2동,162.025355,0,1,3,3,0,1
1619,중계동 하나프라자빌딩 앞(중1-1),노원구,37.649021,127.076408,5/26/2017,10,LCD,하계2동,79.95189009,3,0,3,8,0,2
1620,중계동 노원구민체육센터 옆(중1-2),노원구,37.648209,127.070221,6/22/2017,10,LCD,중계1동,93.54947003,3,0,0,8,0,2
1625,상계역(4번출구),노원구,37.66,127.072968,6/27/2017,20,LCD,중계1동,59.04373909,6,1,1,2,0,0
1627,수락산역 4번출구,노원구,37.676941,127.055099,12/31/2020,12,QR,중계4동,45.97658733,4,1,2,2,0,2
1628,노일초등학교 앞,노원구,37.673618,127.055252,6/22/2017,10,LCD,상계1동,3.413569987,5,1,2,5,0,2
1630,수연빌딩 앞,노원구,37.67625,127.055504,9/2/2020,10,QR,상계1동,50.17865974,4,1,2,3,0,2
1634,당고개공원 대여소,노원구,37.669079,127.077591,5/8/2017,15,LCD,상계1동,80.95160823,1,1,1,2,0,0
1635,상계3.4동 주민센터 대여소,노원구,37.67271,127.08316,5/8/2017,11,LCD,상계3.4동,40.17463393,2,1,1,0,0,0
1636,백병원 사거리 농협은행 앞,노원구,37.649212,127.061768,5/8/2017,10,LCD,상계3.4동,49.10582208,1,0,0,6,0,1
1637,KT 노원점 건물 앞,노원구,37.654701,127.0634,5/8/2017,15,LCD,상계6.7동,27.18407115,4,2,7,2,0,1
1639,희성오피앙,노원구,37.680313,127.055069,5/8/2017,10,LCD,상계6.7동,20.04004468,3,1,1,3,0,2
1640,한내근린공원 북측,노원구,37.623863,127.068489,8/31/2017,9,QR,상계1동,37.67499341,3,1,0,1,0,1
1641,한내근린공원 남측,노원구,37.621555,127.069511,8/30/2017,15,LCD,월계3동,8.818922619,2,0,0,2,0,2
1642,서울여대 남문,노원구,37.625435,127.088493,8/23/2017,7,LCD,월계3동,224.6591763,0,0,1,4,0,0
1643,태릉입구역 8번출구,노원구,37.617367,127.075211,11/1/2017,10,LCD,공릉2동,60.10172586,3,2,2,1,0,4
1646,삼육대 입구,노원구,37.638489,127.107903,11/1/2017,20,LCD,공릉1동,47.4245441,2,0,2,3,0,0
1650,중계근린공원내,노원구,37.63958,127.065102,11/1/2017,20,LCD,공릉2동,89.89889919,6,1,5,4,0,1
1651,맥도날드 상계점 앞,노원구,37.672375,127.055992,11/1/2017,20,LCD,중계2.3동,44.94686219,5,0,2,5,0,2
1652,파르코 앞,노원구,37.68,127.05558,11/1/2017,10,LCD,상계1동,19.65042088,3,1,1,3,0,2
1653,노원역1번출구,노원구,37.6562,127.063622,11/1/2017,10,LCD,상계1동,22.65044062,6,2,7,3,0,1
1654,당고개입구 오거리,노원구,37.663792,127.075447,11/1/2017,15,LCD,상계2동,30.12400456,3,1,0,2,0,0
1655,공릉1단지아파트,노원구,37.631111,127.07016,11/1/2017,15,LCD,상계3.4동,53.62176982,4,0,1,4,0,0
1656,중앙하이츠 아파트 입구,노원구,37.654999,127.067436,11/1/2017,10,LCD,공릉1동,2.990415627,4,1,5,2,0,1
1657,노원구청,노원구,37.654049,127.057327,11/1/2017,20,LCD,상계2동,26.42431289,6,1,2,1,0,0
1659,중계동 을지중학교,노원구,37.65033,127.071602,11/1/2017,10,LCD,상계6.7동,14.1927446,3,0,0,7,0,3
1660,서울시립과학관,노원구,37.642071,127.076622,11/1/2017,8,LCD,중계1동,164.6213521,0,0,1,4,0,1
1661,당현천근린공원,노원구,37.649639,127.065605,11/28/2017,10,LCD,하계1동,277.7569995,0,0,0,8,0,2
1662,노원역7번출구,노원구,37.654114,127.059151,11/28/2017,15,LCD,상계6.7동,52.31867891,5,2,5,2,0,1
1663,동해문화예술관앞,노원구,37.619381,127.057854,11/28/2017,20,LCD,상계6.7동,57.49901856,5,0,3,6,0,1
1664,노해근린공원내,노원구,37.649361,127.070442,11/28/2017,10,LCD,월계1동,102.7861248,3,0,0,9,0,2
1665,양지근린공원앞,노원구,37.647335,127.076424,11/28/2017,10,LCD,중계1동,11.263137,4,0,3,7,0,2
1666,노원소방서인근,노원구,37.655781,127.071777,11/28/2017,10,LCD,중계1동,194.2133453,0,0,3,4,0,0
1667,중계중학교,노원구,37.654499,127.074387,11/28/2017,10,LCD,상계2동,208.5642993,0,0,1,5,0,0
1668,중계역 6번출구,노원구,37.645508,127.063255,11/28/2017,10,LCD,중계1동,55.98396766,3,1,0,7,0,0
1669,중계역 3번출구,노원구,37.643757,127.064987,11/28/2017,9,LCD,중계2.3동,50.11516426,2,1,2,6,0,1
1670,노원경찰서교차로,노원구,37.64341,127.071838,11/28/2017,15,LCD,중계2.3동,40.35030056,1,0,1,6,0,0
1671,인덕대학교,노원구,37.629349,127.054825,11/28/2017,15,LCD,하계1동,22.67794088,6,0,0,6,0,2
1672,상계동수락리버시티,노원구,37.688599,127.053406,11/28/2017,15,LCD,월계2동,161.2342825,0,0,1,3,0,3
1673,노원역 5번출구,노원구,37.653976,127.060974,11/28/2017,16,LCD,장암동,67.7875515,4,2,5,3,0,1
1674,서울북부고용센터앞,노원구,37.653549,127.058083,11/28/2017,15,LCD,상계6.7동,39.99119435,6,1,3,2,0,0
1675,월계문화체육센터,노원구,37.626942,127.05513,12/22/2017,14,LCD,상계6.7동,109.2862411,2,0,0,3,0,3
1677,육군사관학교 앞,노원구,37.623165,127.0905,12/22/2017,10,LCD,월계1동,46.27015519,2,0,1,3,0,0
1678,성서대학교 밀알관,노원구,37.648438,127.064445,2/26/2018,15,LCD,공릉2동,145.464494,2,1,0,9,0,2
1679,삼육대 도서관,노원구,37.64283,127.106667,2/26/2018,15,LCD,상계6.7동,463.7916909,0,0,1,4,0,0
1680,삼육대 제3과학관,노원구,37.642654,127.108383,2/26/2018,10,LCD,공릉2동,326.2838314,0,0,1,4,0,0
1681,현대6차 아파트,노원구,37.645802,127.08226,3/15/2018,12,LCD,공릉2동,50.21761788,4,0,1,2,0,0
1682,중계종합사회복지관 교차로,노원구,37.656799,127.077606,3/15/2018,13,LCD,중계본동,35.04756599,2,0,1,5,0,2
1683,노원문화예술회관,노원구,37.650459,127.080887,10/27/2018,10,LCD,중계4동,45.81145437,3,0,4,5,0,3
1684,태릉입구역 5번출구,노원구,37.61832,127.07563,10/27/2018,20,LCD,중계본동,95.73010681,4,2,2,1,0,4
1685,불암고등학교 앞 횡단보도,노원구,37.64819,127.080482,10/27/2018,8,LCD,공릉1동,35.70468169,5,0,4,3,0,2
1686,온수골사거리(스타벅스앞),노원구,37.66114,127.058052,11/2/2018,10,LCD,중계본동,52.07753286,5,1,0,4,0,1
1688,마들역 7번출구,노원구,37.665661,127.057297,11/2/2018,9,LCD,상계10동,16.37532008,6,1,0,7,0,0
1689,마들역 3번출구,노원구,37.665249,127.057892,11/2/2018,10,LCD,상계8동,44.37803821,7,1,0,8,0,1
1690,도봉운전면허시험장,노원구,37.65773,127.059311,11/2/2018,10,LCD,상계9동,48.06101157,2,2,3,2,0,2
1691,노원정보도서관,노원구,37.660709,127.065331,11/2/2018,10,LCD,상계10동,32.07652085,4,0,1,4,0,0
1692,온곡초교 교차로,노원구,37.664188,127.06601,12/14/2018,10,LCD,상계10동,44.31244835,10,0,0,8,0,0
1693,원자력 병원,노원구,37.628189,127.082108,3/29/2019,15,LCD,상계9동,13.91443478,1,0,1,0,0,1
1695,월계미륭아파트 정문,노원구,37.623417,127.066933,6/17/2020,10,QR,공릉2동,111.2020175,3,2,0,1,0,0
1696,수락리버시티4단지,노원구,37.686451,127.052834,3/21/2020,10,QR,월계3동,67.36421644,3,0,1,5,0,1
1697,상계주공2단지 219동,노원구,37.650249,127.057152,3/23/2020,10,QR,상계1동,10.30796665,1,0,0,6,0,0
1700,상계보람아파트 202동 ,노원구,37.665215,127.066139,3/23/2020,15,QR,상계6.7동,27.78273984,8,0,0,7,0,0
2901,공릉동풍림아파트 101동,노원구,37.630001,127.065682,3/24/2020,8,QR,상계9동,172.1001389,0,0,1,4,0,0
2902,공릉풍림아파트 108동,노원구,37.62862,127.06691,3/24/2020,12,QR,공릉1동,132.7046891,1,0,1,3,0,0
2903,월계초안아파트 1단지,노원구,37.633259,127.0439,3/24/2020,10,QR,공릉1동,52.58921544,5,0,0,3,0,1
2904,중계3차청구아파트,노원구,37.650505,127.073982,3/24/2020,8,QR,월계2동,90.4318155,1,0,0,4,0,2
2905,중계주공6단지,노원구,37.648163,127.078987,3/26/2020,10,QR,중계1동,40.35253913,5,0,4,4,0,2
2907, 월계중학교,노원구,37.630749,127.053108,3/24/2020,25,QR,중계본동,157.7683906,0,0,0,8,0,1
2908, 광운대학교 중앙도서관,노원구,37.620003,127.058563,3/24/2020,20,QR,월계2동,40.87553317,2,0,3,6,0,1
2909, 석계역 3번 출구,노원구,37.615459,127.067452,3/25/2020,10,QR,월계1동,46.96134661,3,2,2,0,0,0
2910,도깨비시장,노원구,37.622093,127.074425,3/25/2020,10,QR,월계3동,75.32894503,2,2,1,1,0,4
2911,상계역중앙시장,노원구,37.659233,127.072098,3/23/2020,7,QR,공릉1동,83.52436052,4,1,1,2,0,0
2912,대진고등학교,노원구,37.638191,127.073731,3/23/2020,20,QR,상계5동,29.26711822,3,0,3,4,0,0
2913,상계8동 주민센터,노원구,37.666996,127.051529,3/23/2020,8,QR,하계1동,22.83374346,1,0,0,7,0,1
2914,서울과학기술대학교(미래관),노원구,37.628925,127.081429,6/10/2020,20,QR,상계8동,96.14175553,1,0,1,1,0,1
2915,서울과학기술대학교(어학교육원),노원구,37.635109,127.076599,3/24/2020,20,QR,공릉2동,185.9255859,0,0,3,4,0,0
2917,신창중학교 후문 맞은편 버스정류장,노원구,37.628071,127.046921,3/30/2020,10,QR,하계1동,16.46361666,3,0,0,6,0,0
2919,등나무 근린공원(시립북서울미술관 앞) ,노원구,37.639996,127.066574,3/23/2020,15,QR,월계2동,67.61089395,3,1,5,6,0,1
2920,상계중학교(당현2교사거리),노원구,37.651035,127.06871,3/23/2020,15,QR,중계2.3동,72.31988694,2,0,0,9,0,2
2921,중계역 2번출구,노원구,37.645489,127.064583,3/26/2020,10,QR,상계2동,34.4978925,3,1,0,7,0,1
900,은평예술회관,은평구,37.603943,126.927696,9/2/2016,20,LCD,중계2.3동,34.15077975,1,1,3,1,0,1
901,응암1동사무소,은평구,37.600975,126.926956,9/2/2016,10,LCD,녹번동,38.3158136,4,0,3,2,0,0
902,진관동 은빛초등학교,은평구,37.643108,126.918221,9/2/2016,10,LCD,응암1동,193.6749637,0,0,0,1,0,0
903,은평뉴타운 아이파크,은평구,37.645866,126.927391,9/2/2016,20,LCD,진관동,65.04599255,4,0,0,3,0,0
904,은평뉴타운 푸르지오,은평구,37.648674,126.930702,9/2/2016,18,LCD,진관동,28.89109763,3,0,0,1,0,0
905,구파발역 2번출구,은평구,37.636234,126.918999,12/12/2020,9,QR,진관동,37.58365443,4,1,1,1,0,0
906,연신내역 5번출구150M 아래,은평구,37.61721,126.919579,9/2/2016,10,LCD,진관동,77.29965711,5,2,1,3,0,1
907,CJ 드림시티,은평구,37.599491,126.916862,9/2/2016,10,LCD,대조동,130.8019285,3,1,0,4,0,0
908,구산역 4번출구,은평구,37.613186,126.917351,9/2/2016,10,LCD,응암1동,111.3783494,3,1,0,6,0,0
909,백련산 힐스테이트 3차,은평구,37.586994,126.922882,9/2/2016,10,LCD,갈현2동,4.908236312,2,0,0,7,0,0
911,은평평화공원(역촌역4번출구),은평구,37.605583,126.922935,9/2/2016,10,LCD,응암2동,77.21383729,5,1,1,1,0,0
912,응암오거리,은평구,37.589661,126.916946,9/2/2016,10,LCD,녹번동,29.83354138,6,1,1,1,0,2
913,이마트 은평점,은평구,37.6007,126.920128,9/2/2016,15,LCD,응암3동,111.8159228,3,1,0,2,0,0
914,새절역 2번출구,은평구,37.590797,126.913651,9/2/2016,20,LCD,응암1동,42.92853526,6,1,1,1,0,2
915,증산역 4번출구,은평구,37.584381,126.909897,9/2/2016,10,LCD,신사2동,73.67291108,5,1,1,1,0,0
916,평생학습관 앞,은평구,37.607849,126.921326,9/2/2016,7,LCD,증산동,93.66796775,5,1,0,0,0,0
917,녹번역 4번출구,은평구,37.601299,126.935349,9/2/2016,9,LCD,역촌동,39.0935538,4,1,0,1,0,0
919,서울혁신파크,은평구,37.607948,126.932503,9/2/2016,10,LCD,녹번동,85.47832532,3,2,3,1,0,2
921,신도고등학교,은평구,37.630016,126.919029,9/2/2016,10,LCD,녹번동,32.27556139,2,0,0,3,0,0
922,연신내역 4번출구,은평구,37.617802,126.921967,9/2/2016,10,LCD,진관동,39.15762016,3,2,1,2,0,1
923,국민은행 연서지점,은평구,37.620949,126.925636,9/2/2016,10,LCD,대조동,108.6411258,4,1,0,3,0,1
924,메뚜기다리,은평구,37.628517,126.929581,9/2/2016,15,LCD,불광1동,60.19025883,2,0,1,4,0,1
925,불광역 2번출구,은평구,37.609566,126.930977,9/2/2016,8,LCD,진관동,35.9865381,9,2,3,2,0,2
927,연신내역 3번출구 인근,은평구,37.617855,126.922523,9/2/2016,10,LCD,불광1동,44.86720799,3,2,1,2,0,1
928,은평역사한옥박물관,은평구,37.641315,126.938042,9/2/2016,15,LCD,불광1동,50.34749984,2,0,4,1,0,2
930,구 서부경찰서 건너편,은평구,37.601662,126.920303,9/2/2016,7,LCD,진관동,5.891049019,2,0,0,2,0,0
931,역촌파출소,은평구,37.604736,126.915337,9/2/2016,20,LCD,역촌동,132.9557579,1,0,1,1,0,0
932,예일여중,은평구,37.610004,126.916397,9/2/2016,10,LCD,역촌동,45.03891211,4,1,0,5,0,0
933,LG서비스 역촌점,은평구,37.612484,126.914879,9/2/2016,10,LCD,구산동,49.34904274,2,1,0,5,0,0
934,신사동 성당,은평구,37.597141,126.909599,11/1/2017,15,LCD,구산동,75.11724104,3,0,1,2,0,0
937,상림마을 롯데캐슬2단지 옆,은평구,37.645851,126.923798,11/1/2017,15,LCD,신사1동,19.26112257,2,0,0,3,0,0
938,금암 문화공원,은평구,37.644684,126.918457,11/1/2017,15,LCD,진관동,66.6395815,2,0,0,1,0,0
939,은평구청 교차로,은평구,37.6017,126.927422,11/1/2017,15,LCD,진관동,86.23247628,4,0,3,1,0,0
941,은평뉴타운 도서관,은평구,37.637222,126.933304,11/1/2017,11,LCD,녹번동,113.6184239,1,0,0,1,0,1
942,상림마을 생태공원,은평구,37.644081,126.929283,11/1/2017,9,LCD,진관동,27.583372,1,0,0,3,0,0
943,은평구청 보건소,은평구,37.602402,126.92865,11/1/2017,10,LCD,진관동,169.9993029,0,0,3,1,0,0
945,기자촌 사거리,은평구,37.63414,126.932343,11/1/2017,10,LCD,녹번동,35.03944646,3,0,0,3,0,0
946,독바위역,은평구,37.618439,126.932884,5/30/2018,10,LCD,진관동,51.23150345,4,1,1,2,0,2
947,연신내 선일하이츠빌 정류소,은평구,37.622669,126.919991,11/1/2017,10,LCD,불광1동,6.354300042,4,2,1,3,0,1
948,디지털미디어 시티역 4번출구,은평구,37.577202,126.902351,11/1/2017,10,LCD,불광2동,151.1437134,0,3,2,1,0,0
949,연신내역 1번 출구,은평구,37.619781,126.920807,11/1/2017,7,LCD,증산동,0.806455122,4,2,1,1,0,1
950,구산역 2번 출구,은평구,37.610779,126.917351,11/1/2017,5,LCD,불광2동,30.68241153,7,1,0,5,0,0
952,서울연신중학교,은평구,37.62265,126.925247,11/1/2017,10,LCD,역촌동,141.9195857,1,0,0,3,0,0
953,서울연신초등학교,은평구,37.625778,126.928818,11/1/2017,10,LCD,불광2동,17.7165381,4,0,1,5,0,0
954,은평뉴타운구파발9단지,은평구,37.642609,126.921478,11/28/2017,10,LCD,불광2동,64.53306873,2,0,0,3,0,1
956,응암시장교차로,은평구,37.594376,126.918159,11/28/2017,9,LCD,진관동,17.24239902,7,0,0,2,0,0
958,신한은행 응암동 지점 앞,은평구,37.600361,126.922813,10/16/2018,13,LCD,응암3동,70.74700046,4,0,1,3,0,0
959,구파발10단지 인근,은평구,37.643661,126.914558,10/18/2018,10,LCD,응암1동,78.27018691,2,0,0,1,0,0
960,구파발역 환승센터,은평구,37.638252,126.919456,10/18/2018,15,LCD,진관동,170.2505256,0,1,1,1,0,1
961,불광역 9번 출구,은평구,37.61097,126.92981,10/18/2018,8,LCD,진관동,36.29720032,8,2,2,2,0,2
962,은평뉴타운 힐데스하임,은평구,37.639259,126.918907,10/18/2018,10,LCD,불광1동,273.9420147,0,1,1,1,0,0
963,대호프라자아파트,은평구,37.614429,126.932579,10/16/2018,13,LCD,진관동,24.58843328,2,2,1,1,0,2
964,북한산힐스테이트 7차아파트,은평구,37.616112,126.925041,10/16/2018,10,LCD,불광1동,71.72515516,4,2,0,3,0,0
965,서울특별시 은평병원,은평구,37.593479,126.923187,10/16/2018,10,LCD,불광1동,4.396639354,6,0,0,2,0,1
966,서울혁신파크1,은평구,37.609032,126.934677,8/28/2018,10,LCD,응암2동,190.6244049,0,1,3,1,0,1
967,서울혁신파크2,은평구,37.60891,126.932419,8/29/2018,13,LCD,녹번동,23.60594231,4,2,3,2,0,2
968,은평뉴타운 상림마을 13단지,은평구,37.64209,126.929413,10/18/2018,7,LCD,녹번동,224.389727,0,0,0,3,0,1
969,은평 지웰테라스,은평구,37.64386,126.931877,12/14/2018,9,LCD,진관동,257.3392446,0,0,0,1,0,0
971,역촌 센트레빌 아파트,은평구,37.602329,126.906548,12/14/2018,10,LCD,진관동,39.046852,6,0,1,1,0,0
972,수색역,은평구,37.58218,126.894943,6/14/2019,20,LCD,역촌동,121.6808159,2,1,3,1,0,1
973,제각말푸르지오 5-1단지 아파트,은평구,37.637348,126.935844,4/8/2020,10,QR,수색동,120.536717,2,0,2,1,0,0
974,연신초등학교옆 마을마당,은평구,37.62672,126.929016,4/9/2020,10,QR,진관동,6.83243028,4,0,1,4,0,0
975,백련산 힐스테이트상가앞,은평구,37.590363,126.923012,4/10/2020,10,QR,불광2동,13.67477245,5,0,0,2,0,1
976,진관고등학교앞,은평구,37.643509,126.924103,4/9/2020,10,QR,응암2동,22.96254197,2,0,0,4,0,1
977,신도중학교앞,은평구,37.633102,126.931503,4/8/2020,20,QR,진관동,27.51057609,4,0,1,3,0,0
978,녹번 힐스테이트상가앞,은평구,37.601009,126.935928,4/9/2020,20,QR,진관동,96.91191327,3,1,0,1,0,0
979,원풍빌라앞,은평구,37.591862,126.906082,4/10/2020,10,QR,녹번동,17.8693463,8,0,0,4,0,0
982,유니클로 은평점앞,은평구,37.604126,126.925087,4/10/2020,10,QR,신사2동,51.42640229,1,1,3,1,0,1
984,상신초등학교앞 버스정류장,은평구,37.59581,126.910263,4/10/2020,10,QR,녹번동,11.02155333,5,0,1,2,0,0
985,은평온누리약국앞,은평구,37.601192,126.926384,4/10/2020,10,QR,신사1동,23.49201909,5,0,3,2,0,0
989,응암 꼬꼬닭치킨호프 앞,은평구,37.591812,126.914833,4/10/2020,10,QR,응암1동,72.83713088,6,1,1,1,0,1
991,흥국사 정류장,은평구,37.656769,126.942009,4/6/2020,10,QR,응암3동,0.772121995,2,0,0,0,0,2
992,북한산입구 정류장,은평구,37.658428,126.94606,4/6/2020,10,QR,진관동,68.76806696,2,0,1,0,0,4
993,은평뉴타운 온뜨락아파트앞,은평구,37.630287,126.919563,4/8/2020,25,QR,진관동,44.22470771,4,0,0,3,0,0
994,북한산생태공원입구(교통섬),은평구,37.610718,126.93911,4/9/2020,15,QR,진관동,43.54276838,4,0,1,0,0,0
995,은평다목적체육관,은평구,37.631409,126.925407,4/8/2020,15,QR,불광1동,8.262612773,2,0,2,4,0,0
996,응암역 1번출구,은평구,37.598606,126.915405,4/10/2020,10,QR,진관동,40.42947018,6,1,0,4,0,0
115,마스타 빌딩 앞,서대문구,37.558933,126.927116,11/5/2020,15,QR,신사1동,45.61385231,1,3,26,1,0,4
116,일진아이윌아파트 옆,서대문구,37.564541,126.927071,9/7/2015,5,LCD,신촌동,197.4779278,0,0,17,1,0,0
117,홍은사거리,서대문구,37.59116,126.94133,9/7/2015,25,LCD,연희동,78.14677741,6,1,0,2,0,0
123,문화촌 공원,서대문구,37.59433,126.947388,9/7/2015,20,LCD,홍은2동,48.9862022,6,0,0,3,0,0
128,신촌역(2호선) 1번출구 옆,서대문구,37.555496,126.93634,9/7/2015,20,LCD,홍제3동,40.96361163,11,2,19,3,0,5
131,증산2교,서대문구,37.584171,126.911102,9/7/2015,23,LCD,신촌동,51.93910822,3,1,1,1,0,0
133,해담는다리,서대문구,37.582031,126.908997,9/7/2015,15,LCD,북가좌2동,51.35134607,2,1,1,3,0,0
134,연세로 명물길,서대문구,37.557892,126.93808,10/29/2020,8,QR,북가좌2동,93.6929412,1,2,18,3,0,5
135,명물길 원형무대 앞,서대문구,37.559101,126.939178,9/7/2015,10,LCD,신촌동,115.8560802,4,2,13,3,0,5
137,NH농협 신촌지점 앞,서대문구,37.556812,126.943184,9/7/2015,10,LCD,신촌동,42.69919886,6,2,12,5,0,7
138,신촌동 제1공영주차장 앞,서대문구,37.559177,126.934525,9/7/2015,10,LCD,신촌동,78.59105267,4,1,14,1,0,5
139,연세대 정문 건너편,서대문구,37.559795,126.934479,9/7/2015,13,LCD,신촌동,57.46483983,5,0,12,1,0,4
140,이화여대 후문,서대문구,37.560009,126.940735,9/7/2015,20,LCD,신촌동,145.4648665,1,1,13,2,0,7
141,연대 대운동장 옆,서대문구,37.562382,126.932648,9/7/2015,20,LCD,신촌동,86.48769039,3,0,8,0,0,1
158,독립문 어린이 공원,서대문구,37.571259,126.96048,6/29/2016,15,LCD,연희동,40.03950191,10,1,7,6,0,2
159,이대역 4번 출구,서대문구,37.556953,126.946342,6/29/2016,7,LCD,천연동,14.02113965,10,2,7,3,0,5
160,북아현동 가구거리,서대문구,37.557549,126.959381,6/29/2016,20,LCD,신촌동,74.36703749,5,2,3,6,0,1
161,무악재역1번 출구,서대문구,37.582245,126.950645,6/29/2016,8,LCD,북아현동,42.2877662,2,1,0,1,0,0
162,봉원고가차도 밑,서대문구,37.565269,126.946243,6/29/2016,15,LCD,홍제2동,53.89364259,2,0,6,3,0,0
163,명지전문대학교 정문 앞,서대문구,37.583698,126.924965,6/29/2016,7,LCD,신촌동,113.4869307,6,0,0,7,0,0
164,북가좌1동 주민센터,서대문구,37.574478,126.910049,6/29/2016,10,LCD,홍은2동,251.8610833,0,0,0,3,0,0
165,중앙근린공원,서대문구,37.575138,126.91394,6/29/2016,20,LCD,북가좌1동,57.45014066,2,0,0,3,0,0
166,가재울 초등학교,서대문구,37.573277,126.919678,6/29/2016,20,LCD,북가좌1동,99.94907001,1,0,1,1,0,0
167,연가초등학교 옆,서대문구,37.57946,126.91713,6/29/2016,15,LCD,남가좌1동,40.63783471,2,0,0,2,0,0
169,북가좌 삼거리,서대문구,37.573002,126.907799,6/29/2016,15,LCD,북가좌2동,153.8575746,0,0,0,4,0,0
170,가재울 뉴타운 주유소 옆,서대문구,37.573112,126.922447,6/29/2016,10,LCD,북가좌1동,65.59491944,3,0,4,1,0,0
171,임광빌딩 앞,서대문구,37.564724,126.967278,6/29/2016,10,LCD,남가좌2동,6.913259148,7,1,32,9,0,1
173,서대문역 8번출구 앞,서대문구,37.564777,126.966148,6/29/2016,8,LCD,충현동,57.48314958,9,1,21,9,0,2
175,홍연2교옆,서대문구,37.578072,126.930817,6/29/2016,20,LCD,충현동,39.27601116,8,0,8,1,0,0
176,명지대학교 도서관,서대문구,37.581097,126.924026,4/24/2017,10,LCD,홍은2동,109.9057108,3,0,0,8,0,0
177,북가좌 초등학교,서대문구,37.577675,126.909805,7/6/2016,8,LCD,남가좌2동,89.83160358,3,0,0,3,0,0
178,증산3교 앞,서대문구,37.579876,126.906349,7/6/2016,10,LCD,북가좌1동,79.70147457,2,0,0,3,0,0
179,가좌역 4번출구 앞,서대문구,37.569122,126.914795,6/29/2016,15,LCD,북가좌1동,24.14338466,6,1,0,2,0,0
180,충정로역 7번출구 아래,서대문구,37.559967,126.962463,6/29/2016,10,LCD,남가좌1동,18.93572158,6,2,6,2,0,1
188,홍은동 정원여중 입구,서대문구,37.586388,126.935127,7/6/2016,10,LCD,충현동,19.69977455,7,0,1,1,0,2
191,서우빌딩(바른학원),서대문구,37.578892,126.910736,7/6/2016,10,LCD,홍은2동,46.29494164,3,0,0,2,0,0
192,연서어린이공원,서대문구,37.572227,126.923065,7/6/2016,10,LCD,북가좌2동,86.33962208,2,0,3,1,0,0
194,증산교 앞,서대문구,37.577316,126.902969,7/6/2016,10,LCD,연희동,180.7496996,0,3,2,1,0,0
195,모래내고가차도,서대문구,37.567657,126.917809,7/6/2016,10,LCD,북가좌1동,33.5692158,6,1,1,3,0,0
196,연희교차로 인근,서대문구,37.56612,126.925896,7/6/2016,10,LCD,연희동,28.11241326,3,0,17,1,0,0
198,충정2교,서대문구,37.562138,126.963776,7/6/2016,15,LCD,연희동,51.80545762,3,3,6,5,0,1
3100,북성초교,서대문구,37.557396,126.952164,11/1/2017,8,LCD,충현동,28.5933235,5,1,1,8,0,1
3101,서대문구청,서대문구,37.578381,126.936096,11/1/2017,15,LCD,북아현동,15.16383455,6,0,5,1,0,2
3102,연희삼거리,서대문구,37.567966,126.931725,11/1/2017,10,LCD,연희동,12.89452838,5,0,10,2,0,0
3103,홍제삼거리 북측,서대문구,37.5867,126.94677,10/12/2018,8,LCD,연희동,51.802319,2,1,0,2,0,0
3104,e편한세상 신촌4단지 앞,서대문구,37.558128,126.956207,10/12/2018,13,LCD,홍제2동,22.61911343,8,1,1,6,0,1
3105,홍은센트레빌 아파트 앞,서대문구,37.597149,126.93853,10/18/2018,12,LCD,북아현동,64.24871612,1,1,0,0,0,1
3106,홍남교 두바퀴쉼터,서대문구,37.574909,126.926147,11/21/2018,12,LCD,홍은2동,56.79770285,4,0,5,0,0,0
3107,연희초등학교 앞,서대문구,37.56974,126.933327,10/12/2018,7,LCD,연희동,25.83909562,3,0,5,1,0,0
3109,북한산더 106동 앞,서대문구,37.592934,126.941292,4/9/2020,15,QR,연희동,87.77208071,2,0,0,2,0,1
3110,홍은 현대아이파크 아파트 202동 앞,서대문구,37.589283,126.936943,4/9/2020,15,QR,홍은1동,50.15183032,4,0,2,1,0,2
3111,무악재역 4번 출구,서대문구,37.582211,126.950165,4/10/2020,10,QR,홍은2동,57.9028319,2,1,0,1,0,0
3112,독립문역 5번 출구,서대문구,37.57386,126.958298,2/13/2020,9,QR,홍제1동,112.053377,3,1,7,3,0,1
3113,독립문역사거리,서대문구,37.572205,126.959747,2/11/2020,25,QR,천연동,54.42194618,11,1,8,5,0,2
3114,충정로역 3번 출구,서대문구,37.560463,126.965523,4/12/2020,12,QR,천연동,135.3936572,3,2,11,3,0,2
3115,북아현 치안센터 인근,서대문구,37.561455,126.95575,5/12/2020,20,QR,충현동,79.25983368,6,1,1,7,0,0
3116,신촌역 4번출구,서대문구,37.555504,126.937203,4/5/2020,10,QR,충현동,7.390672203,8,2,19,3,0,5
3117,이화여대 인문관 인근,서대문구,37.564068,126.945328,4/12/2020,10,QR,신촌동,102.9482686,2,0,9,4,0,1
3119,연희 브라운스톤 아파트 앞,서대문구,37.565197,126.929855,4/10/2020,10,QR,신촌동,62.24074249,4,0,12,1,0,0
3120,DMC엘가아파트 앞,서대문구,37.569836,126.918091,4/8/2020,12,QR,연희동,137.0031201,1,1,1,2,0,0
3121,가좌삼거리,서대문구,37.570652,126.912987,4/8/2020,15,QR,남가좌1동,28.56819762,4,1,0,2,0,0
3122,북가좌삼거리2,서대문구,37.574284,126.906464,4/8/2020,30,QR,북가좌1동,99.70942406,2,1,0,5,0,0
3123,DMC파크뷰자이1단지 110동 앞,서대문구,37.572388,126.915108,5/4/2020,30,QR,북가좌1동,170.6559259,0,1,0,2,0,0
3124,DMC센트럴아이파크아파트,서대문구,37.578121,126.921753,4/8/2020,20,QR,남가좌1동,5.354481439,3,0,2,3,0,0
3125,연희파크푸르지오아파트 앞,서대문구,37.575642,126.927826,4/10/2020,15,QR,남가좌2동,53.56421117,4,0,5,0,0,0
3126,남가좌동 제2공영주차장,서대문구,37.583344,126.922745,4/8/2020,10,QR,연희동,75.76935688,3,0,0,7,0,0
3127,홍은2파출소 옆,서대문구,37.583336,126.936287,4/9/2020,10,QR,남가좌2동,86.14302514,2,0,0,2,0,3
3128,동신병원 맞은편,서대문구,37.581318,126.935997,4/10/2020,7,QR,홍은2동,24.40535529,8,0,5,3,0,1
3129,DMC래미안e편한세상203동옆,서대문구,37.576263,126.911324,4/22/2020,20,QR,홍은2동,44.68615301,2,0,0,3,0,0
3130,가재울사거리,서대문구,37.574348,126.918823,5/4/2020,20,QR,북가좌1동,11.05265305,5,0,1,1,0,0
3131,연가교 교차로,서대문구,37.572159,126.921188,5/4/2020,15,QR,남가좌2동,38.43021682,4,0,1,1,0,0
3132,홍제교,서대문구,37.591862,126.944214,4/9/2020,20,QR,남가좌1동,41.99292347,7,1,0,2,0,0
3133,핀란드 타워앞,서대문구,37.557114,126.948814,4/12/2020,18,QR,홍은1동,138.7712206,1,1,4,4,0,5
3134,SK리체블(상수도사업본부),서대문구,37.561317,126.966583,4/12/2020,10,QR,신촌동,128.1838437,1,3,15,3,0,2
101,(구)합정동 주민센터,마포구,37.549561,126.905754,9/6/2015,5,LCD,충현동,215.0835532,0,0,4,0,0,3
102,망원역 1번출구 앞,마포구,37.555649,126.910629,9/6/2015,20,LCD,합정동,57.92139308,4,1,7,1,0,1
103,망원역 2번출구 앞,마포구,37.554951,126.910835,9/6/2015,14,LCD,서교동,10.53205552,5,1,7,1,0,1
104,합정역 1번출구 앞,마포구,37.550629,126.914986,9/6/2015,13,LCD,망원1동,5.68027918,5,2,33,2,0,0
105,합정역 5번출구 앞,마포구,37.550007,126.914825,9/6/2015,5,LCD,서교동,17.84304105,6,2,39,2,0,0
106,합정역 7번출구 앞,마포구,37.548645,126.912827,9/6/2015,10,LCD,서교동,25.51580618,4,2,24,1,0,0
107,신한은행 서교동금융센터점 앞,마포구,37.55751,126.918503,9/6/2015,5,LCD,합정동,19.11731497,4,1,18,0,0,0
108,서교동 사거리,마포구,37.552746,126.918617,9/6/2015,10,LCD,서교동,115.7879173,6,1,53,0,0,4
109,제일빌딩 앞,마포구,37.547691,126.919983,9/7/2015,10,LCD,서교동,35.1003615,3,1,40,1,0,5
111,상수역 2번출구 앞,마포구,37.547871,126.923531,9/7/2015,10,LCD,서강동,77.67757983,3,1,28,2,0,6
112,극동방송국 앞,마포구,37.549202,126.923203,9/7/2015,10,LCD,서강동,25.11078749,2,1,47,2,0,6
113,홍대입구역 2번출구 앞,마포구,37.557499,126.923805,,0,QR,서강동,22.48011232,8,3,34,1,0,5
114,홍대입구역 8번출구 앞,마포구,37.55706,126.924423,9/7/2015,15,LCD,서교동,48.67802722,8,3,40,1,0,6
118,광흥창역 2번출구 앞,마포구,37.547733,126.931763,9/7/2015,10,LCD,서교동,62.17300311,8,1,4,4,0,1
119,서강나루 공원,마포구,37.545284,126.931053,9/7/2015,10,LCD,서강동,118.0600139,5,1,5,2,0,0
120,신수동 사거리,마포구,37.545242,126.934113,9/7/2015,5,LCD,서강동,122.0444299,6,1,4,4,0,0
121,마포소방서 앞,마포구,37.549767,126.933174,9/7/2015,15,LCD,신수동,47.58332009,7,2,3,3,0,1
122,신성기사식당 앞,마포구,37.547459,126.938377,9/7/2015,10,LCD,신수동,61.13756673,5,1,2,5,0,0
124,서강대 정문 건너편,마포구,37.55114,126.936989,9/7/2015,20,LCD,신수동,81.75029289,2,2,7,5,0,1
125,서강대 남문 옆,마포구,37.549484,126.93895,9/7/2015,15,LCD,대흥동,28.47365915,3,2,5,4,0,1
126,서강대 후문 옆,마포구,37.550411,126.943848,9/7/2015,20,LCD,대흥동,12.78089319,2,1,8,7,0,1
127,현대벤처빌 앞,마포구,37.55352,126.936951,9/7/2015,15,LCD,대흥동,27.94127455,5,2,17,3,0,6
129,신촌역(2호선) 6번출구 옆,마포구,37.555054,126.937569,9/7/2015,15,LCD,대흥동,54.72765127,5,2,18,4,0,5
130,신촌역(2호선) 7번출구 앞,마포구,37.554859,126.936157,9/7/2015,10,LCD,대흥동,23.95445492,11,2,19,4,0,5
136,대흥동 주민센터,마포구,37.556004,126.942299,9/7/2015,7,LCD,서교동,102.8491598,3,3,15,3,0,7
142,아현역 4번출구 앞,마포구,37.557201,126.955666,6/29/2016,11,LCD,대흥동,6.434817892,8,2,1,6,0,1
143,공덕역 2번출구,마포구,37.544579,126.950218,6/29/2016,9,LCD,아현동,78.45548407,5,4,3,6,0,5
144,공덕역 8번출구,마포구,37.543579,126.951324,6/29/2016,10,LCD,아현동,14.60985202,6,4,4,2,0,5
145,공덕역 5번출구,마포구,37.54425,126.951637,6/29/2016,9,LCD,공덕동,37.50907454,5,4,4,3,0,5
146,마포역 2번출구 뒤,마포구,37.539936,126.945824,6/29/2016,12,LCD,공덕동,26.41439764,5,1,3,2,0,5
147,마포역 4번출구 뒤,마포구,37.539272,126.945915,6/29/2016,7,LCD,용강동,51.12639968,4,1,3,2,0,4
148,용강동 주민센터 앞,마포구,37.542347,126.943024,6/29/2016,11,LCD,도화동,177.5905003,0,1,2,2,0,3
150,서강대역 2번출구 앞,마포구,37.552956,126.934341,6/29/2016,15,LCD,용강동,78.86023076,3,2,18,3,0,4
151,망원1동주민센터,마포구,37.555687,126.905548,6/29/2016,10,LCD,대흥동,47.7071204,2,1,4,1,0,2
152,마포구민체육센터 앞,마포구,37.55661,126.898018,9/24/2020,30,QR,망원1동,52.24334849,5,0,1,1,0,1
153,성산2교 사거리,마포구,37.564697,126.912613,6/29/2016,10,LCD,망원2동,9.647546516,6,1,0,5,0,1
154,마포구청역,마포구,37.560909,126.905495,6/29/2016,13,LCD,성산1동,40.45080155,4,1,3,3,0,1
155,가좌역1 번출구 뒤,마포구,37.56855,126.914513,6/29/2016,15,LCD,망원2동,75.77913196,4,1,0,2,0,0
156,서울서부지방법원 앞,마포구,37.549904,126.955147,6/29/2016,10,LCD,성산2동,33.44426314,3,1,1,2,0,1
157,애오개역 4번출구 앞,마포구,37.553001,126.956688,6/29/2016,12,LCD,공덕동,47.23388211,2,2,2,6,0,1
181,망원초록길 입구,마포구,37.551342,126.902672,7/6/2016,15,LCD,공덕동,175.188957,0,0,1,0,0,3
182,망원2빗물펌프장 앞,마포구,37.551567,126.902847,7/6/2016,10,LCD,망원1동,146.9551338,1,0,2,0,0,3
183,하늘채코오롱아파트 건너편,마포구,37.565166,126.919395,7/6/2016,15,LCD,망원1동,50.22157498,4,0,4,3,0,0
184,SK망원동주유소 건너편,마포구,37.558949,126.907753,7/6/2016,9,LCD,연남동,123.7693334,2,1,3,4,0,1
185,마포 신수공원 앞,마포구,37.542545,126.934296,7/6/2016,15,LCD,성산1동,249.2992056,0,0,3,2,0,0
186,월드컵공원,마포구,37.563965,126.898209,7/6/2016,40,LCD,신수동,248.5051034,0,1,1,1,0,5
199,서울 월드컵 경기장,마포구,37.566845,126.896446,9/2/2016,30,LCD,성산2동,26.87477998,3,1,5,0,0,6
400,상암한화오벨리스크 1차 앞,마포구,37.587524,126.883003,10/7/2015,15,LCD,성산2동,97.71404608,2,0,1,1,0,0
401,상암월드컵파크 10단지 앞,마포구,37.586189,126.881615,10/7/2015,15,LCD,상암동,7.465459405,2,0,1,1,0,0
402,상암월드컵파크 9단지 앞,마포구,37.582855,126.879822,10/7/2015,20,LCD,상암동,63.40880716,3,0,0,3,0,0
403,부엉이공원 앞,마포구,37.58559,126.884727,10/7/2015,20,LCD,상암동,5.367960331,2,0,1,2,0,0
405,DMC빌 앞,마포구,37.582657,126.885788,10/7/2015,8,LCD,상암동,24.68339728,6,0,3,3,0,0
406,상암월드컵파크 7단지 앞,마포구,37.581314,126.880585,10/7/2015,15,LCD,상암동,105.3633437,3,0,0,3,0,0
407,마포구 육아종합지원센터,마포구,37.580631,126.883675,10/7/2015,8,LCD,상암동,132.0133274,1,0,1,3,0,1
408,LG CNS앞,마포구,37.580811,126.88665,10/7/2015,20,LCD,상암동,11.48392597,4,0,3,3,0,1
409,누리꿈스퀘어 옆,마포구,37.579399,126.88916,10/7/2015,25,LCD,상암동,62.16239627,2,0,8,2,0,2
410,상암중학교 옆,마포구,37.577496,126.887772,10/7/2015,10,LCD,상암동,34.11571537,2,0,8,2,0,1
411,DMC홍보관,마포구,37.577995,126.891472,10/7/2015,9,LCD,상암동,13.19265712,4,1,9,2,0,2
412,DMC산학협력연구센터 앞,마포구,37.575802,126.890739,10/7/2015,20,LCD,상암동,60.10645993,4,0,8,2,0,3
413,상암월드컵파크 3단지 후문,마포구,37.571476,126.889687,10/7/2015,9,LCD,상암동,26.87612439,1,0,2,0,0,5
414,상암동주민센터 옆,마포구,37.57822,126.89447,10/7/2015,8,LCD,상암동,54.88603717,1,2,9,1,0,1
415,DMC역 9번출구 앞,마포구,37.577469,126.897362,10/7/2015,10,LCD,상암동,86.71653256,1,4,5,1,0,1
416,상암월드컵파크 1단지 교차로,마포구,37.575665,126.894447,10/7/2015,12,LCD,상암동,95.04487892,3,1,10,1,0,2
417,DMC역 2번출구 옆,마포구,37.575069,126.899918,10/7/2015,20,LCD,상암동,23.02382686,5,3,3,1,0,0
418,월드컵경기장역 3번출구 옆,마포구,37.570721,126.898979,10/7/2015,10,LCD,상암동,169.1467125,0,1,5,1,0,1
419,홈플러스 앞,마포구,37.56842,126.899429,10/7/2015,21,LCD,성산2동,121.3969461,3,1,5,0,0,2
420,서울시 공공자전거 상암센터,마포구,37.566246,126.896179,10/7/2015,40,LCD,성산2동,52.91046283,3,1,5,0,0,6
421,마포구청 앞,마포구,37.565903,126.901184,10/7/2015,8,LCD,성산2동,27.01858694,4,2,2,1,0,2
422,문화비축기지,마포구,37.569084,126.894424,8/28/2017,13,LCD,성산2동,66.2855364,2,1,5,0,0,4
424,롯데하이마트 (상암월드컵점),마포구,37.57362,126.898048,11/1/2017,15,LCD,성산2동,15.58885839,6,4,4,0,0,1
425,DMC첨단산업센터,마포구,37.584503,126.885597,11/1/2017,10,LCD,상암동,84.97610938,4,0,1,2,0,0
426,서울신용보증재단,마포구,37.549061,126.954178,7/4/2018,10,LCD,상암동,84.24893927,1,0,1,2,0,3
427,성산시영아파트,마포구,37.569584,126.903816,2/26/2018,10,LCD,아현동,28.34679875,3,1,2,3,0,1
432,마포중앙도서관,마포구,37.563339,126.908203,10/12/2018,10,LCD,성산2동,121.1836166,2,1,1,3,0,2
436,이대역 5번출구,마포구,37.556591,126.94619,11/21/2018,10,LCD,성산1동,49.13450958,12,2,7,3,0,5
437,대흥역 1번출구,마포구,37.54821,126.941383,12/4/2018,12,LCD,대흥동,31.43393836,4,1,8,5,0,0
438,성산2-1 공영주차장,마포구,37.56472,126.906769,11/22/2018,15,LCD,대흥동,7.401663872,3,1,1,3,0,1
439,마포어린이공원,마포구,37.535751,126.944038,12/6/2018,10,LCD,성산2동,163.870543,0,1,1,0,0,1
440,하늘공원 입구,마포구,37.570006,126.881149,8/2/2019,15,LCD,도화동,77.85291759,2,0,1,0,0,2
487,신석초교앞 교차로 교통섬,마포구,37.54364,126.938309,4/3/2020,26,QR,상암동,53.245042,4,0,1,1,0,1
489,구룡근린공원,마포구,37.583336,126.8834,4/6/2020,10,QR,용강동,70.27576339,1,0,1,3,0,0
490,가온문화공원,마포구,37.582077,126.887665,4/6/2020,10,QR,상암동,14.09823594,4,0,3,2,0,1
491,월드컵파크 4단지,마포구,37.575977,126.888069,4/6/2020,10,QR,상암동,205.1511114,0,0,5,2,0,2
492,성산시영아파트 후문,마포구,37.573135,126.901848,6/3/2020,10,QR,상암동,135.2967843,1,3,1,2,0,0
493,홍대입구역 6번출구,마포구,37.556576,126.928856,4/12/2020,7,QR,성산2동,144.7056448,1,3,30,2,0,8
494,신수동주민센터,마포구,37.547245,126.935028,9/16/2020,5,QR,서교동,38.75788599,3,1,4,4,0,0
495,염리초등학교 앞,마포구,37.542431,126.946999,3/26/2020,10,QR,신수동,24.93190787,2,4,3,3,0,4
497,합정동주민센터 앞,마포구,37.551754,126.9123,4/6/2020,20,QR,용강동,110.6876996,2,2,18,1,0,0
498,연남동주민센터 앞,마포구,37.564651,126.922127,4/8/2020,10,QR,합정동,104.1545454,2,0,10,3,0,0
3002,벽산상암스마트큐브 ,마포구,37.565044,126.903603,4/6/2020,10,QR,연남동,104.5947905,1,1,1,1,0,2
3003,래미안공덕3차아파트,마포구,37.548805,126.951073,4/2/2020,5,QR,성산2동,41.34530149,1,1,4,6,0,2
3005,마포구청 청사내,마포구,37.566246,126.902184,4/2/2020,20,QR,아현동,122.3877759,2,2,2,1,0,2
3006, 상암월드컵파크5단지(상암중학교),마포구,37.57991,126.888237,4/6/2020,15,QR,성산2동,89.59720839,4,0,7,2,0,2
3007,MBC 앞,마포구,37.581947,126.890297,4/6/2020,10,QR,상암동,57.93597268,2,1,5,1,0,1
3008,DMC역7번출구,마포구,37.577114,126.898361,4/6/2020,10,QR,상암동,30.61698488,2,4,3,0,0,0
3009,서교동사거리,마포구,37.55584,126.920433,4/12/2020,10,QR,상암동,45.42056147,8,1,40,1,0,4
3010,홍대입구역 3번출구,마포구,37.558296,126.925385,4/12/2020,15,QR,서교동,64.79442975,2,3,31,1,0,5
3011,경의선(노고산동),마포구,37.553429,126.933792,4/8/2020,10,QR,서교동,39.73377459,2,2,19,1,0,6
4202,프런트원(공덕역 4번출구 앞),마포구,37.54604,126.926727,12/2/2020,10,QR,서강동,99.96601392,2,2,10,1,0,1
700,KB국민은행 염창역 지점 앞,양천구,37.546848,126.872772,6/29/2016,20,LCD,서강동,100.2315001,3,1,3,2,0,0
701,목동사거리 부근,양천구,37.532803,126.86393,6/29/2016,8,LCD,목2동,37.19663454,3,0,1,2,0,1
702,목4동주민센터 옆,양천구,37.532543,126.868729,6/29/2016,16,LCD,목4동,150.9436115,0,0,1,2,0,1
703,오목교역 7번출구 앞,양천구,37.524063,126.87558,6/29/2016,12,LCD,목4동,29.60162095,7,1,6,3,0,0
704,남부법원검찰청 교차로,양천구,37.523254,126.864906,6/29/2016,15,LCD,목1동,78.3480478,3,1,0,6,0,1
706,신정네거리역,양천구,37.521881,126.851753,6/29/2016,15,LCD,신정4동,21.07568625,6,1,1,4,0,0
707,신정3동주민센터,양천구,37.515156,126.854897,6/29/2016,10,LCD,신월2동,8.952095835,2,0,0,4,0,2
708,서울출입국관리사무소 앞,양천구,37.51897,126.869965,6/29/2016,16,LCD,신정3동,50.30980934,4,0,1,3,0,0
709,신정3동 현장민원실 앞,양천구,37.511585,126.84156,6/29/2016,20,LCD,신정6동,101.3084672,4,0,0,7,0,0
711,신일해피트리아파트 앞,양천구,37.517059,126.848488,6/29/2016,20,LCD,신정3동,479.5928107,0,0,0,3,0,1
712,강월초교입구 사거리,양천구,37.516998,126.838318,6/29/2016,14,LCD,신정3동,52.97955962,4,0,1,3,0,1
713,양서중학교 옆,양천구,37.533047,126.829956,6/29/2016,20,LCD,신월7동,37.68470239,1,0,3,2,0,0
714,한국SGI 양천문화회관 앞,양천구,37.532547,126.830803,6/29/2016,10,LCD,신월3동,56.69383649,3,0,1,2,0,0
716,신정6동 주민센터 인근,양천구,37.517281,126.864334,7/6/2016,15,LCD,신월1동,162.4948981,0,0,5,1,0,0
719,홍익병원앞 교차로,양천구,37.530369,126.864258,7/6/2016,10,LCD,신정6동,21.19492669,3,1,1,0,0,2
720,서울강월초등학교 앞,양천구,37.516197,126.8349,7/6/2016,10,LCD,목4동,46.00526268,2,0,1,4,0,0
722,LG전자베스트샵 신정점,양천구,37.521435,126.857384,11/1/2017,10,LCD,신월7동,96.2177344,2,2,2,4,0,1
723,SBS방송국,양천구,37.529163,126.872749,11/1/2017,15,LCD,신정1동,102.1851092,1,0,10,2,0,0
724,계남공원 입구 주출입구 좌측,양천구,37.510681,126.857399,11/1/2017,15,LCD,목1동,89.63923919,2,0,0,5,0,3
725,양강중학교앞 교차로,양천구,37.524334,126.850548,11/1/2017,15,LCD,신정3동,41.40392048,4,1,0,4,0,0
726,목동3단지 시내버스정류장,양천구,37.534389,126.869598,11/1/2017,15,LCD,신월2동,28.46144288,3,0,0,5,0,2
729,서부식자재마트 건너편,양천구,37.51038,126.866798,11/1/2017,10,LCD,목4동,35.5573909,2,1,1,2,0,2
731,서울시 도로환경관리센터,양천구,37.5299,126.876541,11/1/2017,10,LCD,신정7동,91.94978554,1,0,4,2,0,0
732,신월동 이마트,양천구,37.539551,126.8283,11/1/2017,10,LCD,목1동,68.23725549,2,0,4,8,0,0
733,신정이펜하우스314동,양천구,37.514099,126.831001,11/1/2017,10,LCD,신월5동,51.76464078,2,0,0,4,0,0
734,신트리공원 입구,양천구,37.51395,126.856056,11/1/2017,10,LCD,신정3동,50.38050072,3,0,0,4,0,3
735,영도초등학교,양천구,37.53643,126.871521,11/1/2017,10,LCD,신정1동,79.65153514,4,0,0,5,0,1
736,오솔길공원,양천구,37.52219,126.8367,11/1/2017,10,LCD,목5동,19.72497751,4,0,1,1,0,0
737,장수공원,양천구,37.52256,126.84948,11/1/2017,10,LCD,신월7동,125.5027025,4,1,1,4,0,0
739,신월사거리,양천구,37.536201,126.827797,11/1/2017,15,LCD,신월2동,30.10810791,7,0,4,6,0,0
740,으뜸공원,양천구,37.536369,126.831711,11/1/2017,10,LCD,신월3동,101.3862316,2,0,3,2,0,0
741,화곡로 입구 교차로,양천구,37.53952,126.825401,11/1/2017,10,LCD,신월5동,55.158884,2,0,3,7,0,0
742,등촌역 5번 출구 뒤,양천구,37.550732,126.864578,11/1/2017,10,LCD,신월3동,128.5767373,1,1,0,4,0,1
743,현대6차아파트 101동 옆,양천구,37.5089,126.842682,11/1/2017,10,LCD,목3동,60.90842439,12,0,0,5,0,0
744,신목동역 2번 출구,양천구,37.543842,126.882545,10/28/2020,10,QR,신정3동,17.98950354,6,1,1,1,0,1
745,강서초등학교,양천구,37.522282,126.839699,11/1/2017,10,LCD,목5동,127.6815825,2,0,1,2,0,0
746,목동2단지 상가,양천구,37.536503,126.877747,11/1/2017,10,LCD,신월4동,8.206668784,2,0,0,3,0,2
747,목동3단지 상가,양천구,37.53458,126.875648,11/1/2017,10,LCD,목5동,20.35844447,2,0,1,2,0,2
748,목동운동장,양천구,37.530251,126.879303,11/1/2017,15,LCD,목5동,302.1609702,0,0,2,0,0,0
749,이대 목동병원 앞,양천구,37.537228,126.886612,7/4/2018,10,LCD,목1동,51.13222973,1,0,0,5,0,1
750,연의근린공원 건너편,양천구,37.512157,126.835625,2/26/2018,10,LCD,목5동,59.05513551,5,0,0,6,0,1
752,성원2차 아파트,양천구,37.542183,126.863304,2/26/2018,10,LCD,신정3동,16.87571441,2,0,0,2,0,2
754,목동1단지아파트 118동 앞 (월촌초등학교 정류소 옆,양천구,37.541142,126.876678,9/27/2018,10,LCD,목3동,34.99856246,2,0,1,2,0,2
755,목동1단지아파트 상가 앞 (월촌중학교 버스정류소 옆),양천구,37.537868,126.881409,9/27/2018,10,LCD,목5동,11.97524759,2,0,0,2,0,2
756,목동주차장,양천구,37.52668,126.876167,9/27/2018,10,LCD,목5동,135.0446165,1,1,11,2,0,0
757,신정이펜하우스 1단지아파트 입구 사거리,양천구,37.514278,126.828743,9/27/2018,10,LCD,목1동,15.79636786,7,0,0,1,0,1
758,한사랑교회 앞,양천구,37.514721,126.8592,9/27/2018,10,LCD,신정3동,116.1820293,2,0,4,3,0,1
759,보아스아파트 앞,양천구,37.524071,126.8386,9/20/2018,9,LCD,신정7동,203.5247148,0,0,0,2,0,0
760,잣절보도육교 아래,양천구,37.506821,126.844299,10/15/2018,10,LCD,신월4동,73.05538077,4,0,0,6,0,0
762,오목로 무중력지대 앞,양천구,37.524551,126.877052,9/27/2018,10,LCD,신정3동,17.69587682,3,1,5,3,0,0
763,목동11단지 아파트,양천구,37.510658,126.859161,11/5/2018,10,LCD,목1동,37.89457207,5,0,0,4,0,3
764,목동청소년수련관,양천구,37.531029,126.875893,10/26/2018,30,LCD,신정7동,111.7752003,2,0,3,0,0,0
765,오목교역 3번출구,양천구,37.524776,126.875481,1/2/2019,10,LCD,목1동,86.07856485,8,1,10,3,0,0
766,신목동역 3번출구,양천구,37.54426,126.88325,3/12/2019,15,LCD,목1동,59.70733853,6,1,0,1,0,1
767,신정숲속마을아파트,양천구,37.505745,126.836311,3/11/2020,10,QR,목2동,80.42185878,2,0,0,0,0,0
768,목동5단지아파트 501동,양천구,37.535919,126.882446,3/12/2020,15,QR,신정3동,71.27794081,3,0,0,5,0,2
769,CBS방송국 앞,양천구,37.527855,126.874672,3/15/2020,20,QR,목5동,50.6587138,2,1,12,2,0,0
770,목동역5번출구 교통정보센터 앞,양천구,37.525715,126.864868,3/13/2020,10,QR,목1동,41.53493984,5,1,1,4,0,1
771,목동아파트 703동 앞,양천구,37.527706,126.870064,3/13/2020,8,QR,목1동,72.62089937,1,0,9,3,0,0
773,"염창역 3, 4번 출구 사이",양천구,37.546707,126.874573,3/16/2020,10,QR,목1동,45.86210058,4,1,3,1,0,2
774,등촌역 4번 출구 ,양천구,37.549507,126.867218,3/16/2020,11,QR,목2동,35.36596636,3,1,1,2,0,1
775,세종그랑시아 앞(102동),양천구,37.538376,126.863831,3/16/2020,10,QR,목3동,70.02602547,4,0,0,4,0,2
776,목마공원,양천구,37.538742,126.885681,3/13/2020,15,QR,목4동,156.0478505,0,0,0,4,0,1
777,신월6차보람아파트 앞,양천구,37.530128,126.834778,3/11/2020,10,QR,목5동,47.89938746,2,0,1,1,0,0
779,양천나눔누리센터,양천구,37.518845,126.853684,3/9/2020,10,QR,신월1동,53.35807724,5,1,1,3,0,1
780,신정교 하부,양천구,37.516907,126.877586,3/11/2020,15,QR,신정1동,86.4683143,2,0,1,2,0,0
781,신정보도육교 아래,양천구,37.517593,126.876556,3/11/2020,10,QR,신정2동,78.28247677,2,0,1,1,0,0
782,서남병원 후문,양천구,37.511673,126.832741,3/15/2020,20,QR,신정2동,13.11264781,3,0,0,4,0,1
785,"양천구청, 보건소 사잇길",양천구,37.517326,126.866303,3/15/2020,15,QR,신정3동,92.36258605,3,0,5,0,0,0
786,목동아파트 8단지 상가동 앞,양천구,37.520439,126.868401,3/18/2020,9,QR,신정6동,22.38669643,3,0,1,4,0,0
787,양천아파트 입구,양천구,37.507904,126.862648,3/9/2020,10,QR,신정6동,68.865331,6,0,0,3,0,1
788,양천구청역 2번출구 옆,양천구,37.512379,126.865555,3/6/2020,15,QR,신정7동,28.96104743,2,1,2,2,0,0
790,화곡고가 사거리,양천구,37.527607,126.848755,3/11/2020,40,QR,신정7동,216.0214484,0,1,0,3,0,1
791,현대하이페리온,양천구,37.52478,126.869835,3/13/2020,15,QR,신월2동,37.16772508,3,2,9,6,0,0
792,목동트라팰리스 웨스턴에비뉴,양천구,37.525372,126.870926,3/13/2020,20,QR,목1동,136.7902245,2,1,10,6,0,0
793,목동5단지아파트 534동,양천구,37.53355,126.878143,3/12/2020,15,QR,목1동,94.01891403,4,0,1,0,0,2
794,양천문화회관,양천구,37.516842,126.862953,4/20/2020,10,QR,목5동,37.17039832,1,0,5,1,0,0
795,양천 해누리타운,양천구,37.515419,126.8638,4/20/2020,10,QR,신정6동,41.15138714,1,1,5,0,0,0
796,목동아파트 14단지 B상가 앞,양천구,37.514664,126.871941,4/20/2020,10,QR,신정6동,13.03665185,4,0,0,4,0,0
797,목동아파트 1422동 1434동 사잇길,양천구,37.515156,126.87249,4/20/2020,10,QR,신정6동,32.85349325,4,0,0,4,0,0
1101,개화동상사마을종점 버스정류장,강서구,37.581612,126.798599,4/24/2017,10,LCD,신정6동,32.8412559,2,1,0,0,0,0
1102,방화사거리 마을버스 버스정류장,강서구,37.573643,126.811806,4/24/2017,10,LCD,방화2동,18.68239349,9,2,1,4,0,0
1103,방화역 4번출구앞,강서구,37.577221,126.812195,6/22/2017,10,LCD,방화1동,37.31979451,4,1,0,6,0,0
1105,방화근린공원,강서구,37.581623,126.812653,4/24/2017,10,LCD,방화3동,287.7034534,0,1,0,2,0,6
1106,신방화사거리,강서구,37.573032,126.816452,6/20/2017,10,LCD,방화3동,18.8100843,3,0,0,6,0,0
1108,공항시장역 2번출구 뒤,강서구,37.56356,126.81015,4/24/2017,9,LCD,방화1동,76.45402026,2,2,1,3,0,1
1109,공항시장역 4번출구,강서구,37.563347,126.810486,4/24/2017,6,LCD,방화2동,67.09738384,2,2,1,3,0,1
1110,공항중학교앞,강서구,37.562683,126.816238,6/20/2017,10,LCD,공항동,52.43164389,2,1,0,3,0,0
1111,마곡엠밸리6_7단지 마곡중학교,강서구,37.566982,126.8218,4/24/2017,15,LCD,공항동,49.5747656,1,2,0,4,0,0
1112,마곡엠밸리4단지 정문,강서구,37.568577,126.824776,4/24/2017,15,LCD,방화1동,35.79349708,1,2,0,1,0,0
1113,서남환경공원 버스정류장,강서구,37.573093,126.822899,4/24/2017,15,LCD,가양1동,24.04196781,2,0,0,1,0,0
1114,서남물재생센터 버스정류장,강서구,37.572781,126.826279,4/24/2017,15,LCD,가양1동,90.6533919,2,0,0,0,0,0
1115,등촌역 1번출구옆,강서구,37.551666,126.86409,6/22/2017,10,LCD,가양1동,89.73069138,1,1,0,3,0,1
1117,스타벅스앞,강서구,37.558197,126.844261,6/22/2017,10,LCD,등촌1동,31.60845727,5,0,3,4,0,2
1118,증미역 3번출구뒤(등촌두산위브센티움오피스텔),강서구,37.557461,126.861458,4/24/2017,10,LCD,등촌3동,34.48479803,3,1,2,3,0,0
1119,염창동 한마음아파트앞(염창동 빛나는 음악학원앞),강서구,37.554253,126.867561,4/24/2017,6,LCD,등촌1동,42.23465178,3,1,1,6,0,2
1120,대림경동아파트앞,강서구,37.565189,126.853996,4/24/2017,25,LCD,염창동,79.8358891,3,1,2,2,0,1
1121,가양레포츠센터앞,강서구,37.559479,126.86438,4/24/2017,15,LCD,가양2동,54.55465079,2,1,1,2,0,2
1122,황금내근린공원,강서구,37.561932,126.863869,4/24/2017,10,LCD,가양3동,215.4813821,0,0,0,3,0,0
1124,발산역 6번 출구 뒤,강서구,37.557968,126.838287,12/11/2020,11,QR,가양3동,41.80082496,6,1,2,3,0,0
1125,명덕고교입구(영종빌딩),강서구,37.552914,126.836571,6/22/2017,10,LCD,우장산동,25.70889742,2,1,0,7,0,0
1126,우장산역 1번출구옆(우장산아이파크105동앞),강서구,37.548908,126.836563,4/24/2017,7,LCD,우장산동,37.44809766,4,1,0,4,0,0
1127,화곡역(에이스정형외과앞) 버스정류장,강서구,37.540981,126.838547,4/24/2017,10,LCD,우장산동,27.67458721,4,1,2,2,0,0
1128,화곡역 6번출구,강서구,37.541412,126.840225,6/20/2017,10,LCD,화곡1동,94.25850929,6,1,3,2,0,0
1129,화곡역 1번 출구 앞,강서구,37.542099,126.840218,4/24/2017,10,LCD,화곡1동,73.12452728,2,1,3,2,0,0
1130,화곡본동시장 버스정류장,강서구,37.542751,126.842621,4/24/2017,7,LCD,우장산동,13.11609171,4,1,3,4,0,0
1131,꿈돌이공원 앞,강서구,37.546444,126.845459,4/24/2017,8,LCD,화곡본동,35.87038488,5,0,1,2,0,0
1132,등촌역 7번출구,강서구,37.551109,126.863708,4/24/2017,10,LCD,화곡본동,115.5004351,1,1,0,4,0,1
1135,강서구의회,강서구,37.546532,126.862549,4/24/2017,10,LCD,등촌2동,37.56334007,1,0,0,3,0,1
1136,등촌2파출소,강서구,37.544788,126.862,4/24/2017,10,LCD,등촌2동,35.74020906,3,0,0,4,0,2
1137,등촌2동주민센터,강서구,37.541431,126.86322,4/24/2017,10,LCD,등촌2동,61.06660681,2,0,0,2,0,2
1139,용문사 버스정류장,강서구,37.536991,126.863365,4/24/2017,8,LCD,등촌2동,11.94352503,2,0,0,3,0,1
1140,목동사거리 버스정류장,강서구,37.531399,126.863609,4/24/2017,15,LCD,등촌2동,26.13403372,4,0,1,0,0,2
1141,곰달래 문화복지센터 1-1,강서구,37.52906,126.84848,4/24/2017,10,LCD,화곡4동,70.36266378,3,2,0,2,0,1
1145,곰달래 문화복지센터 1-2,강서구,37.528919,126.848083,4/24/2017,10,LCD,화곡8동,58.43229747,3,2,0,2,0,1
1146,곰달래사거리,강서구,37.530338,126.838257,4/24/2017,10,QR,화곡1동,47.03630246,6,0,0,0,0,0
1148,볏골공원,강서구,37.54147,126.84478,4/24/2017,10,LCD,화곡1동,159.3780136,0,1,2,3,0,0
1149,신방화역환승주차장,강서구,37.567284,126.818275,8/31/2017,13,LCD,화곡본동,64.53110907,3,1,0,4,0,0
1150,송정역 1번출구,강서구,37.56155,126.810478,11/1/2017,10,LCD,방화1동,42.74909495,6,2,0,2,0,1
1151,마곡역1번출구,강서구,37.560234,126.823471,11/1/2017,25,LCD,공항동,75.71515385,2,1,0,3,0,0
1152,마곡역교차로,강서구,37.558666,126.826614,11/1/2017,10,LCD,공항동,115.5149806,6,1,1,1,0,0
1153,"발산역 1번, 9번 인근 대여소",강서구,37.55891,126.838097,11/1/2017,10,LCD,발산1동,56.95754828,9,1,2,4,0,0
1155,기쁜우리복지관,강서구,37.56926,126.848419,11/1/2017,10,LCD,가양1동,60.22724039,3,0,1,4,0,2
1157,강서구청,강서구,37.550659,126.84977,11/1/2017,8,LCD,가양2동,46.10313485,3,0,1,3,0,0
1158,가양역 8번출구,강서구,37.561035,126.854813,11/28/2017,20,LCD,화곡6동,74.65477555,3,1,2,9,0,0
1159,서서울모터리움앞,강서구,37.565853,126.846596,11/28/2017,20,LCD,등촌3동,146.1802334,1,1,1,5,0,1
1160,양천향교역 7번출구앞,강서구,37.56768,126.840897,12/31/2020,20,QR,가양1동,92.88681375,1,1,0,3,0,0
1161,강서면허시험장앞,강서구,37.549694,126.819664,11/28/2017,10,LCD,가양1동,14.87151254,4,0,0,2,0,0
1162,공항초등학교건너편,강서구,37.562679,126.820473,11/28/2017,10,LCD,발산1동,46.97557819,2,1,0,2,0,0
1163,방화동강서기동대앞,강서구,37.570499,126.820084,11/28/2017,10,LCD,방화1동,172.6923736,0,1,0,4,0,0
1165,마곡중학교 후문,강서구,37.568447,126.821648,12/8/2017,20,LCD,방화1동,75.85645367,4,1,0,4,0,0
1166,강서구립등빛도서관,강서구,37.562569,126.842461,12/22/2017,10,LCD,방화1동,54.05589268,2,0,2,5,0,0
1167,마곡수명산파크3단지 교차로,강서구,37.553467,126.825928,12/22/2017,15,LCD,등촌3동,22.51724981,3,0,0,3,0,0
1168,마곡엠밸리10단지 앞,강서구,37.560226,126.819069,2/26/2018,10,LCD,발산1동,178.5075453,0,1,0,4,0,0
1169,염창역 1번 출구,강서구,37.547199,126.874489,10/4/2018,8,LCD,공항동,63.13627449,5,1,3,2,0,2
1170,강서구보건소 (삼성디지털 프라자),강서구,37.549179,126.868797,10/4/2018,11,LCD,염창동,23.18022724,3,1,2,3,0,1
1171,염창동 새마을금고 건너편 (모닝글로리),강서구,37.550049,126.873161,10/4/2018,8,LCD,염창동,23.35221826,4,1,4,3,0,0
1172,가양3동 주민센터,강서구,37.561249,126.86058,10/4/2018,8,LCD,염창동,23.7564198,6,1,0,4,0,0
